stop_id,stop_code,stop_name,stop_desc,stop_lat,stop_lon,zone_id,stop_url,location_type,parent_station,stop_timezone,wheelchair_boarding
773271753,,Flughafen-Süd,,53.0507001,8.7896481,,,,,,
773271757,,Flughafen,,53.0529497,8.7861692,,,,,,
417636717,,Neuenlander Kämpe,,53.0564241,8.7840563,,,,,,
21316788,,BSAG-Zentrum,,53.0613021,8.7856379,,,,,,
417636735,,Schleiermacherstraße,,53.0638933,8.7897167,,,,,,
417636736,,Gastfeldstraße,,53.0662897,8.7935685,,,,,,
773271746,,Theater am Leibnizplatz,,53.0699727,8.7995192,,,,,,
2573586833,,Wilhelm-Kaisen-Brücke,,53.0723223,8.8038406,,,,,,
3069310717,,Domsheide,,53.0746639,8.8085323,,,,,,
26587115,,Schüsselkorb,,53.0770637,8.8099555,,,,,,
2573585073,,Herdentor,,53.0798944,8.8104208,,,,,,
2570903291,,Hauptbahnhof,,53.0815366,8.8139555,,,,,,
2576185058,,Blumenthalstraße,,53.0836715,8.8180633,,,,,,
2576185056,,Am Stern,,53.084571,8.8259259,,,,,,
1360132259,,Brahmsstraße,,53.0858332,8.83118,,,,,,
768090824,,Joseph-Haydn-Straße,,53.0873066,8.8369841,,,,,,
768090843,,H.-H.-Meier-Allee,,53.0891366,8.8430192,,,,,,
768090851,,Emmastraße,,53.0915504,8.8458702,,,,,,
768090904,,Wätjenstraße,,53.0951069,8.8506981,,,,,,
768090920,,Riensberg,,53.0969225,8.8542925,,,,,,
766862382,,Berufsbildungswerk,,53.1026387,8.8593052,,,,,,
766862401,,Lise-Meitner-Straße,,53.1039256,8.8551294,,,,,,
21530451,,Universität-Süd,,53.1052125,8.8510296,,,,,,
2576185928,,Universität/Zentralbereich,,53.1079026,8.8525619,,,,,,
773271748,,Universität-Ǹord,,53.1110282,8.8553194,,,,,,
3940260921,,Roland-Center,,53.0487235,8.7423629,,,,,,
29857295,,Norderländer Straße,,53.0587135,8.7598151,,,,,,
29857211,,Bardenflethstraße,,53.0607045,8.767872,,,,,,
29857217,,Solinger Straße,,53.061757,8.773622,,,,,,
2435197748,,Duckwitzstraße,,53.0650738,8.7793791,,,,,,
29857228,,Neuenlander Straße,,53.0672763,8.7830583,,,,,,
2574881188,,Pappelstraße,,53.069659,8.7871395,,,,,,
416834361,,Hochschule Bremen,,53.0723058,8.7910119,,,,,,
2001553073,,Westerstraße,,53.0739803,8.7953226,,,,,,
2574881186,,Am Neuen Markt,,53.0729185,8.7993982,,,,,,
4204688089,,Bulthauptstraße,,53.0881568,8.8327005,,,,,,
2576185066,,Crüsemannallee,,53.0918793,8.8355005,,,,,,
2576185061,,Busestraße,,53.0949403,8.8376697,,,,,,
2576185067,,Kulenkampffallee,,53.0979002,8.8401318,,,,,,
767994996,,Arsten,,53.0273316,8.8375386,,,,,,
1970663128,,Twiedelftsweg,,53.0290411,8.8380148,,,,,,
1970662072,,Heukämpendamm,,53.0325069,8.8381091,,,,,,
1970662093,,Kattenturm-Mitte,,53.0358664,8.8273203,,,,,,
1970662098,,Klinikum links der Weser,,53.037457,8.8224998,,,,,,
1970663126,,Robert-Koch-Straße,,53.0423834,8.8246019,,,,,,
767994948,,Sielhof,,53.0487967,8.8204649,,,,,,
1970662079,,Huckelriede,,53.0519255,8.8190555,,,,,,
1970662066,,Am Dammacker,,53.056121,8.8150758,,,,,,
2295366576,,Rosenpfad,,53.0587931,8.8128563,,,,,,
845861664,,Kirchweg,,53.0627292,8.8099589,,,,,,
1328817505,,Schwankhalle (Schnürschuh Theater),,53.0652503,8.8061779,,,,,,
1305261463,,Rotes-Kreuz-Krankenhaus,,53.0677658,8.8019947,,,,,,
271525896,,Theater am Leibnizplatz,,53.0699361,8.7996577,,,,,,
2570903289,,Hauptbahnhof,,53.0813776,8.8137471,,,,,,
2573586828,,Rembertistraße,,53.0804719,8.8191314,,,,,,
773207194,,Am Dobben,,53.0784223,8.8236287,,,,,,
768090748,,Parkstraße,,53.0801139,8.828437,,,,,,
2268946269,,Hollerallee,,53.081399,8.8323531,,,,,,
768090761,,St. Joseph-Stift,,53.0825726,8.8375664,,,,,,
768090776,,Metzer Straße,,53.0833773,8.8424133,,,,,,
768090890,,Kirchbachstraße,,53.0851666,8.8494607,,,,,,
768090858,,Friedhofstraße,,53.0889138,8.8571089,,,,,,
768090928,,Focke-Museum,,53.090172,8.862558,,,,,,
768090772,,Bürgermeister-Spitta-Allee,,53.0913421,8.8702857,,,,,,
2583933067,,Horn,,53.0969558,8.8700911,,,,,,
2583933442,,Vorstraße,,53.1013556,8.8749503,,,,,,
2583933069,,Horner Mühle,,53.1016451,8.8802921,,,,,,
768827707,,Werner-von-Siemens-Straße,,53.1057434,8.8845615,,,,,,
768827666,,Kopernikusstraße,,53.1089233,8.8876905,,,,,,
346670236,,Peter-Henlein-Straße,,53.1129934,8.8916272,,,,,,
768827699,,Högerweg,,53.115353,8.8939199,,,,,,
30355996,,Am Lehester Deich,,53.1188359,8.8974387,,,,,,
30356046,,Daniel-Jacobs-Allee,,53.1238896,8.9000963,,,,,,
30356053,,Borgfeld,,53.127273,8.8988494,,,,,,
2908997304,,Truperdeich,,53.1354161,8.8985923,,,,,,
2908997312,,Trupe,,53.1378574,8.9011975,,,,,,
2985887862,,Feldhäuser Straße,,53.1400678,8.9052736,,,,,,
2287983252,,Lilienthal-Mitte,,53.1432035,8.9088744,,,,,,
671967898,,Gröpelingen,,53.1208614,8.7526525,,,,,,
775573115,,Kap-Horn-Straße,,53.1155763,8.7525032,,,,,,
775573113,,Use Akschen,,53.1123784,8.7525475,,,,,,
775573168,,Goosestraße,,53.1104187,8.7576501,,,,,,
775573237,,Grasberger Straße,,53.1085222,8.7638363,,,,,,
775573240,,Jadestraße,,53.1042018,8.769071,,,,,,
31297518,,Emder Straße,,53.1015693,8.7739274,,,,,,
775573206,,Waller Ring,,53.0980669,8.7762537,,,,,,
775573179,,Elisabethstraße,,53.094116,8.7790575,,,,,,
775573153,,Grenzstraße,,53.0910646,8.7819088,,,,,,
775590217,,Hansator,,53.088968,8.784796,,,,,,
775573227,,Konsul-Smidt-Straße,,53.0866183,8.7821095,,,,,,
2004616389,,Europahafen,,53.0849598,8.7798507,,,,,,
782237254,,Eduard-Schopf-Allee,,53.0829288,8.7879807,,,,,,
2573586822,,Radio Bremen,,53.08079,8.7971108,,,,,,
2573585066,,"Am Brill (Hutfilter-/Obernstraße), Bussteig E",,53.0786803,8.8018653,,,,,,
2573585074,,Obernstraße,,53.0765942,8.8063656,,,,,,
417641156,,Domsheide,,53.0743902,8.8098215,,,,,,
818906421,,Theater am Goetheplatz,,53.0723687,8.8170749,,,,,,
818906419,,Wulwesstraße,,53.0726718,8.8203676,,,,,,
775573223,,Sielwall,,53.0730101,8.8250183,,,,,,
818906416,,Brunnenstraße,,53.0721624,8.8288526,,,,,,
775573236,,St.-Jürgen-Straße,,53.0706825,8.8332242,,,,,,
1036529008,,Weserstadion,,53.0699671,8.8371216,,,,,,
2565698559,,Nienburger Straße,,53.0688309,8.8437283,,,,,,
2438131691,,Stader Straße/Hamburger Straße,,53.0678136,8.8497004,,,,,,
694825921,,Georg-Bitter-Straße,,53.0668102,8.8558829,,,,,,
302523688,,Hohwisch,,53.0662127,8.8603975,,,,,,
2151212358,,Weserwehr,,53.063782,8.8677889,,,,,,
2277886221,,Rotterdamer Straße,,53.0403426,8.7304116,,,,,,
2277885433,,Hohenhorster Weg,,53.0449951,8.7363333,,,,,,
918856727,,Willakedamm,,53.0466664,8.7378286,,,,,,
416834325,,Roland-Center,,53.0484792,8.7418043,,,,,,
2277885437,,Obervielander Straße,,53.0521433,8.7408152,,,,,,
2277885424,,Carl-Hurtzig-Straße,,53.0551928,8.7392703,,,,,,
2277886226,,Zum Huchtinger Bahnhof,,53.0582629,8.7349037,,,,,,
1271017121,,Harriersand,,53.057806,8.7293442,,,,,,
2277885436,,Mittelshuchtinger Dorfstraße,,53.0569414,8.7235368,,,,,,
2277885422,,Brüsseler Straße,,53.0565662,8.7174278,,,,,,
2277885425,,Delfter Straße,,53.0441296,8.7228645,,,,,,
990253728,,Am Sodenmatt,,53.0460986,8.7181737,,,,,,
2277885429,,Friedhof Huchting,,53.0391684,8.7279711,,,,,,
29674598,,Delfter Straße,,53.0437195,8.7233816,,,,,,
2277885417,,Am Sodenmatt,,53.0455946,8.7190363,,,,,,
2277885420,,Brüsseler Straße,,53.0557804,8.7161822,,,,,,
2277885435,,Mittelshuchtinger Dorfstraße,,53.0568822,8.7225596,,,,,,
2277885431,,Harriersand,,53.057549,8.7277528,,,,,,
2277886225,,Zum Huchtinger Bahnhof,,53.0580602,8.7355241,,,,,,
2277885423,,Carl-Hurtzig-Straße,,53.0548882,8.7398037,,,,,,
916716267,,Obervielander Straße,,53.0515283,8.7405047,,,,,,
2277886224,,Willakedamm,,53.0473105,8.7385208,,,,,,
2277885432,,Hohenhorster Weg,,53.0446379,8.7360063,,,,,,
2277886220,,Rotterdamer Straße,,53.04086,8.730993,,,,,,
2277885430,,Friedhof Huchting,,53.039168,8.7291664,,,,,,
703392779,,Kattenturm-Mitte,,53.0361925,8.8278924,,,,,,
703392832,,Agnes-Heineken-Straße,,53.038679,8.8322654,,,,,,
703392922,,Bruchhauser Straße,,53.0391691,8.8347889,,,,,,
169371780,,Walther-Jacobs-Straße,,53.0347585,8.8851695,,,,,,
734049624,,Kleine Marschstraße,,53.0402296,8.8839787,,,,,,
734049625,,Arberger Hafendamm,,53.0480338,8.8837263,,,,,,
734049627,,Werrahafen,,53.0511107,8.8831507,,,,,,
2268946251,,Allerkai,,53.0564909,8.8780487,,,,,,
2268946265,,Hermann-Funk-Straße,,53.0568113,8.8813312,,,,,,
2268946263,,Hannoversche Straße,,53.0563459,8.8849895,,,,,,
2151211397,,Glockenstraße/Bf Hemelingen,,53.0559095,8.8886418,,,,,,
2151211366,,Christernstraße,,53.054891,8.8925634,,,,,,
818850506,,Sebaldsbrück,,53.0591684,8.9002534,,,,,,
776070313,,Saarstraße,,53.0595168,8.909731,,,,,,
776070196,,Osterholzer Friedhof,,53.0600306,8.9143567,,,,,,
776070226,,Mercedes-Benz Tor 7,,53.0629902,8.9143176,,,,,,
777285178,,Hermann-Koenen-Straße,,53.071273,8.9150777,,,,,,
777285384,,Wilhelm-Busch-Weg,,53.0714486,8.9063944,,,,,,
777285281,,Im Holter Feld,,53.071608,8.9025098,,,,,,
2268946945,,Witzlebenstraße,,53.0765853,8.9015441,,,,,,
2268946258,,Carl-Goerdeler-Straße,,53.0793789,8.8971019,,,,,,
769037388,,Berliner Freiheit,,53.0794658,8.8937049,,,,,,
776957301,,Friedrich-Stampfer-Straße,,53.0861986,8.891678,,,,,,
776957377,,Neue Vahr Nord,,53.086158,8.8963576,,,,,,
667425990,,Universität-Ǹord,,53.1102803,8.8545364,,,,,,
20980475,,Universität/Zentralbereich,,53.1074996,8.8522031,,,,,,
667425973,,Universität-Süd,,53.1053092,8.8497849,,,,,,
667425962,,Wiener Straße,,53.1062509,8.8457747,,,,,,
786791897,,Celsiusstraße,,53.1095573,8.8479371,,,,,,
3746215758,,Wilhelm-Herbst-Straße,,53.111695,8.8496734,,,,,,
786791168,,Kuhgrabenweg,,53.1139315,8.8437471,,,,,,
786790887,,Stadtwaldsee,,53.1149388,8.8376318,,,,,,
786790742,,Campingplatz,,53.1150755,8.8325572,,,,,,
786790555,,Wetterungsweg,,53.111961,8.8197146,,,,,,
4338994300,,Umspannwerk,,53.1076737,8.8176183,,,,,,
30581710,,Krönkeskamp,,53.1042015,8.8165685,,,,,,
778150540,,Innsbrucker Straße,,53.1015921,8.8147602,,,,,,
778150546,,Utbremer Ring,,53.0979024,8.8123381,,,,,,
29037915,,"Hemmstraße, Bussteig C",,53.0951282,8.8091063,,,,,,
784048713,,Landshuter Straße,,53.0945697,8.8024753,,,,,,
784048352,,Nürnberger Straße,,53.0946695,8.7974541,,,,,,
786851009,,Hansestraße,,53.0913438,8.7906772,,,,,,
794071768,,Johann-Bornemacher-Straße,,53.0906702,8.7866569,,,,,,
794071779,,St.-Magnus-Straße,,53.0925324,8.784559,,,,,,
794071837,,Karl-Peters-Straße,,53.0955643,8.7821716,,,,,,
1996928992,,Bremervörder Straße,,53.0984253,8.7799011,,,,,,
803947653,,Waller Ring,,53.0989128,8.7766861,,,,,,
778110535,,Emder Straße,,53.1015524,8.7732724,,,,,,
1003818547,,Heinrich-Plett-Straße,,53.5942028,8.6221492,,,,,,
985363900,,Jakob-Kaiser-Straße,,53.5925011,8.623212,,,,,,
985363865,,Hermann-Ehlers-Straße,,53.5902785,8.6206461,,,,,,
985363915,,Louise-Schröder-Straße,,53.589059,8.617074,,,,,,
3645026022,,Hans-Böckler-Straße Bad 1,,53.5878752,8.6135341,,,,,,
989081365,,Kurt-Schumacher-Straße,,53.5898748,8.6097159,,,,,,
989081366,,Mecklenburger Weg,,53.5912874,8.6010424,,,,,,
989081357,,Parkstraße,,53.5884423,8.5965157,,,,,,
989081375,,Parktor,,53.5862217,8.590569,,,,,,
993602620,,Jägerhof,,53.5822683,8.5910072,,,,,,
993605907,,Twischlehe,,53.5790018,8.5918786,,,,,,
993610472,,Gesundheitsamt,,53.5758391,8.592033,,,,,,
3642314250,,Flötenkiel,,53.571488,8.59473,,,,,,
1834063127,,Bernh.-Krause-Straße,,53.5687047,8.5923647,,,,,,
992761349,,Krüselstraße,,53.5663405,8.5901733,,,,,,
992765262,,Altmarkt Lehe,,53.5658699,8.5869062,,,,,,
992763895,,Rickmersstraße,,53.5618436,8.5861544,,,,,,
993653684,,Ernst-Reuter-Platz,,53.5572202,8.5849835,,,,,,
993663580,,Kistnerstraße,,53.5545981,8.5831932,,,,,,
993668088,,Am Leher Tor,,53.5518512,8.5812849,,,,,,
3642453571,,Freigebiet/Arbeitsagentur,,53.5488097,8.5785433,,,,,,
993829619,,Lloydstraße / VHS,,53.5471778,8.5756349,,,,,,
992785597,,Bürgermeister-Smidt-Straße,,53.5460124,8.5767572,,,,,,
992792511,,Havenwelten,,53.5442203,8.5755793,,,,,,
992796038,,Große Kirche,,53.5434882,8.5788929,,,,,,
993783277,,Hochschule BHV / Stadttheater,,53.540935,8.5832454,,,,,,
976677324,,Hauptbahnhof,,53.5343745,8.5979476,,,,,,
3643981596,,Schillerstraße,,53.5328771,8.5952535,,,,,,
993811912,,An der Mühle,,53.5296709,8.5954569,,,,,,
993832790,,Humboldtschule,,53.5272957,8.5966278,,,,,,
993839058,,Altonaer Straße,,53.5233419,8.5986412,,,,,,
993912419,,Boschstraße,,53.52282,8.6057106,,,,,,
3644972413,,Haberstraße,,53.5199928,8.6052587,,,,,,
3644949087,,Auerstraße,,53.5176863,8.604234,,,,,,
993939135,,Auerstraße (Endhaltestelle),,53.5163071,8.6047357,,,,,,
997620332,,Lotjeweg,,53.5862261,8.6029458,,,,,,
992703355,,Claus-Groth-Straße,,53.5837433,8.5979387,,,,,,
992710554,,Tötje,,53.5792752,8.5977678,,,,,,
992724192,,Anton-Biehl-Straße,,53.5766463,8.5974414,,,,,,
992731449,,Flötenkiel,,53.5719198,8.5965941,,,,,,
3650396216,,Eisenbahnstraße,,53.5662874,8.5955428,,,,,,
997637427,,Poststraße,,53.5631847,8.5941196,,,,,,
997645171,,Stadtverwaltung,,53.557837,8.5928475,,,,,,
997670142,,Stadthalle,,53.5535078,8.5932033,,,,,,
30207876,,Wiesenstraße,,53.5470818,8.5937851,,,,,,
997779131,,Marineschule,,53.5436212,8.5913319,,,,,,
997779138,,Elbestraße,,53.5396041,8.5902338,,,,,,
976677337,,Elbinger Platz,,53.5347385,8.5896097,,,,,,
988374991,,Rheinstraße,,53.5353649,8.5934013,,,,,,
993832789,,Hauptbahnhof,,53.5350089,8.5977698,,,,,,
454156517,,Friedrich-Ebert-Straße,,53.5322349,8.5983173,,,,,,
999589610,,Voßstraße,,53.5286712,8.60025,,,,,,
999608798,,Am Oberhamm,,53.5243404,8.6015048,,,,,,
999598042,,Boschstraße,,53.5231612,8.6061776,,,,,,
999607601,,Auf der Bult,,53.5222784,8.611568,,,,,,
999683076,,Greifswalder Straße,,53.5204275,8.6154125,,,,,,
999683080,,Karlsweg,,53.5184124,8.6234291,,,,,,
999706477,,Auf der Heide,,53.5168779,8.632436,,,,,,
999744564,,Bregstraße,,53.519609,8.6316054,,,,,,
1000486311,,Vorarlberger Straße,,53.5212443,8.635634,,,,,,
1000488289,,Carsten-Lücken-Straße,,53.519314,8.6389795,,,,,,
1000490026,,Tiroler Straße,,53.5203517,8.6410792,,,,,,
2277885418,,Bf Mahndorf,,53.0396734,8.9440126,,,,,,
779095584,,Kluvenhagener Straße,,53.0383514,8.9394206,,,,,,
2151211487,,Hermann-Osterloh-Straße,,53.0389152,8.9329022,,,,,,
251174774,,Eppenhainer Straße,,53.0419105,8.9315575,,,,,,
2151212293,,Ruppertshainer Straße,,53.0443813,8.9217643,,,,,,
2151211527,,Nauheimer Straße,,53.0445456,8.9145085,,,,,,
2151212309,,Sollingstraße,,53.0420275,8.9123753,,,,,,
2151212334,,Süntelstraße,,53.0397412,8.9090114,,,,,,
2151212327,,Stackkamp,,53.040287,8.9060319,,,,,,
2151211342,,Brünsweg,,53.044487,8.8971718,,,,,,
2151211515,,Marschstraße,,53.0470279,8.8933747,,,,,,
2151212300,,Schlengstraße,,53.0497366,8.8925494,,,,,,
2151211318,,Belmerstraße,,53.0512024,8.8955739,,,,,,
2151211537,,Osterhop,,53.0525718,8.8997034,,,,,,
2151211357,,Christernstraße,,53.0547115,8.8945733,,,,,,
669530367,,Sebaldsbrück,,53.0597666,8.900272,,,,,,
703392912,,Anna-Stiegler-Straße,,53.0406833,8.8279828,,,,,,
767995011,,Robert-Koch-Straße,,53.0439492,8.824281,,,,,,
802118211,,Arsterdamm,,53.0474964,8.8187619,,,,,,
3318285251,,Paul-Feller-Straße,,53.0560006,8.7959599,,,,,,
249436321,,Cornelius-Edzard-Straße,,53.0540224,8.7905569,,,,,,
838051240,,Flughafen,,53.0541646,8.785172,,,,,,
2562313302,,Neuenlander Kämpe,,53.0563349,8.7842707,,,,,,
840885550,,BSAG-Zentrum,,53.0610517,8.7848426,,,,,,
840885555,,Dortmunder Straße,,53.0590511,8.7782273,,,,,,
32922130,,Solinger Straße,,53.0617588,8.7740853,,,,,,
32343380,,Unterführung 75,,53.0622955,8.7720889,,,,,,
249436335,,Bardenflethstraße,,53.060144,8.7620251,,,,,,
249436337,,Norderländer Straße,,53.0583187,8.7574419,,,,,,
776070249,,Sebaldsbrück,,53.0595352,8.899674,,,,,,
778237613,,Osterholzer Friedhof,,53.0595998,8.9138638,,,,,,
778237594,,An der Kämenade,,53.0593429,8.9245317,,,,,,
778237597,,Osterholzer Heerstraße,,53.0590302,8.9301116,,,,,,
778237610,,Lachmundsdamm,,53.0595287,8.9413822,,,,,,
778282067,,Am Siek,,53.0628889,8.9435583,,,,,,
777285343,,Klinikum Bremen-Ost,,53.0654205,8.9443523,,,,,,
2277886223,,Schweizer Eck,,53.0652388,8.9496464,,,,,,
2566496979,,Am Hahnenkamp,,53.0623893,8.9508568,,,,,,
4405616885,,Osterholzer Möhlendamm,,53.0578183,8.9522781,,,,,,
778237602,,Egestorff-Stiftung,,53.0571927,8.9545756,,,,,,
778237591,,Heiligenbergstraße,,53.0532303,8.953293,,,,,,
778237595,,Beim Bohnenhof,,53.0516338,8.9497278,,,,,,
778237603,,Am Großen Kuhkamp,,53.0481993,8.9498282,,,,,,
2194521416,,Bf Mahndorf,,53.0402951,8.9443356,,,,,,
778301185,,Horn,,53.0971155,8.871068,,,,,,
768090815,,Vorstraße,,53.1013727,8.8749516,,,,,,
768090861,,Horner Mühle,,53.1016613,8.8802761,,,,,,
778301176,,Wilhelm-Röntgen-Straße,,53.0996678,8.886055,,,,,,
778301181,,Schorf,,53.0984108,8.8934412,,,,,,
778301157,,Apfelallee,,53.1000575,8.9024138,,,,,,
778301141,,Beim Kleinen Tagwerk,,53.0963801,8.9100152,,,,,,
778301146,,Modersohnweg,,53.0940256,8.9150042,,,,,,
2003385704,,Rockwinkeler Heerstraße,,53.0920023,8.9202819,,,,,,
2003385707,,Simon-Hermann-Post-Weg,,53.0905774,8.9253449,,,,,,
4126274397,,Ikensdamm,,53.0854719,8.9324663,,,,,,
4126016553,,Am Heiddamm,,53.0811168,8.9387387,,,,,,
778923248,,Schevemoorer Landstraße,,53.078178,8.9407172,,,,,,
768878159,,Osterholzer Landstraße,,53.0739822,8.9364534,,,,,,
778923276,,Am Hallacker,,53.0681868,8.9339109,,,,,,
778923270,,Poggenburg,,53.0648074,8.9326496,,,,,,
778923268,,Oewerweg,,53.0617445,8.9315237,,,,,,
2003445373,,Osterholzer Heerstraße,,53.0590468,8.9298323,,,,,,
778237584,,An der Kämenade,,53.0594815,8.9220294,,,,,,
778237573,,Osterholzer Friedhof,,53.0598174,8.9148523,,,,,,
776070355,,Saarstraße,,53.059681,8.9087335,,,,,,
30891924,,Hauptbahnhof,,53.0822174,8.8133014,,,,,,
29857237,,Hochschule Bremen,,53.0723454,8.7910646,,,,,,
29194413,,Westerstraße,,53.0749383,8.7948792,,,,,,
416834383,,"Am Brill (Bgm.-Smidt-Straße), Bussteig/Gleis A",,53.0784954,8.8002892,,,,,,
29194438,,Am Wall,,53.0807634,8.8045435,,,,,,
29857242,,Westerstraße,,53.0737532,8.7930514,,,,,,
29194426,,"Am Brill (Bgm.-Smidt-Straße), Bussteig/Gleis B",,53.0780689,8.7996152,,,,,,
416834388,,Am Wall,,53.0803089,8.8036919,,,,,,
667425986,,Universität-Süd,,53.104841,8.8511979,,,,,,
776070259,,Lise-Meitner-Straße,,53.1031702,8.8565713,,,,,,
766862373,,Berufsbildungswerk,,53.102377,8.8594119,,,,,,
775999361,,Helmer,,53.0992589,8.8626375,,,,,,
768090829,,Horn,,53.096526,8.8703576,,,,,,
26242947,,Bürgermeister-Spitta-Allee,,53.0910704,8.8706097,,,,,,
776070386,,Friedrich-Mißler-Straße,,53.0873481,8.8709206,,,,,,
776070309,,Heinrich-Hertz-Straße,,53.0827255,8.8749703,,,,,,
769037390,,Polizeipräsidium,,53.0799339,8.8776471,,,,,,
776070395,,Schneverdinger Straße,,53.0772739,8.8801135,,,,,,
776070219,,Rennplatz,,53.0710755,8.8863837,,,,,,
776070246,,Parsevalstraße,,53.0670879,8.8878756,,,,,,
2101920755,,Bf Sebaldsbrück,,53.0622953,8.8873142,,,,,,
2581346981,,Trinidadstraße,,53.0600922,8.8937657,,,,,,
2581346980,,Schloßparkstraße,,53.059171,8.8972909,,,,,,
4412858277,,Mercedes-Benz Tor 8,,53.064918,8.9143254,,,,,,
777285227,,Hermann-Koenen-Straße,,53.0712376,8.9171591,,,,,,
777285420,,Bottroper Straße,,53.0716155,8.9200322,,,,,,
775544393,,Bremen Hbf,,53.0829458,8.8136165,,,,,,
2565698556,,Bremen-Mahndorf,,53.0402608,8.9429992,,,,,,
2563849467,,Bremen-Sebaldsbrück,,53.0617335,8.8868132,,,,,,
775544360,,Unnamed train stop.,,53.0832307,8.813652,,,,,,
2563849470,,Bremen-Walle,,53.1050756,8.7852306,,,,,,
30932436,,Bremen-Oslebshausen,,53.1354995,8.7401947,,,,,,
2563849459,,Bremen-Burg,,53.1611589,8.7043667,,,,,,
292137117,,Bremen-Lesum,,53.1707398,8.6838395,,,,,,
1457093565,,Bremen-St. Magnus,,53.1716957,8.6685547,,,,,,
2568003881,,Bremen-Schönebeck,,53.1727903,8.6463146,,,,,,
2568003900,,Bremen-Vegesack,,53.1693456,8.6290732,,,,,,
30891922,,Hauptbahnhof,,53.0819324,8.8138863,,,,,,
3801977151,,Unnamed train stop.,,53.5123322,8.806623,,,,,,
3802018498,,Unnamed train stop.,,53.5154852,8.72246,,,,,,
2574919484,,Unnamed train stop.,,53.5088135,8.6118495,,,,,,
2574919456,,Unnamed train stop.,,53.5350354,8.599589,,,,,,
1854329824,,Unnamed train stop.,,53.5667574,8.6008697,,,,,,
2562313415,,Uphusener Heerstraße,,53.0335469,8.9554993,,,,,,
2562313414,,Uphusener Heerstraße,,53.0332824,8.9563091,,,,,,
30891911,,Hauptbahnhof,,53.081807,8.8137015,,,,,,
30891912,,Hauptbahnhof,,53.0819833,8.8133189,,,,,,
2020720206,,Bremen-Farge,,53.2054201,8.5171899,,,,,,
31278640,,Bremen Turnerstraße,,53.192902,8.546055,,,,,,
2563849461,,Bremen-Kreinsloger,,53.1884876,8.5587507,,,,,,
2400163359,,Bremen Mühlenstraße,,53.1849938,8.572031,,,,,,
31278612,,Bremen-Blumenthal,,53.1836348,8.5822254,,,,,,
2563849475,,Klinikum Bremen-Nord/Beckedorf,,53.1852797,8.5958497,,,,,,
2563849453,,Bremen-Aumund,,53.1848559,8.6183112,,,,,,
2568003903,,Bremen-Vegesack,,53.1698428,8.6299236,,,,,,
993625188,,Havenwelten,,53.5444247,8.5756067,,,,,,
30355995,,Am Lehester Deich,,53.118417,8.8970162,,,,,,
776070208,,Kopernikusstraße,,53.1099057,8.8857721,,,,,,
3185144503,,Hochschulring,,53.1065559,8.8619213,,,,,,
768090905,,Blumenthalstraße,,53.0835439,8.8175159,,,,,,
30891920,,Hauptbahnhof,,53.0816955,8.8139435,,,,,,
2295106492,,Moorstücke,,53.2275287,8.5111431,,,,,,
2295108681,,Sandkuhlenweg,,53.2253237,8.5100348,,,,,,
1572428317,,Vor den Wischen,,53.2231764,8.5089559,,,,,,
26083084,,Rekumer Siel,,53.2178942,8.5097696,,,,,,
2295106469,,Hohenesch,,53.2132146,8.5112329,,,,,,
2295106459,,De Kreienbarg,,53.2108216,8.5126636,,,,,,
2295108700,,Wilhelm-Brandhorst-Straße,,53.207745,8.5142456,,,,,,
2295106453,,Bf Farge,,53.2057307,8.517201,,,,,,
30479041,,Betonstraße,,53.2030788,8.5240468,,,,,,
595351320,,Fähre Farge,,53.1994876,8.5266414,,,,,,
2295108696,,Wasserweg,,53.1962572,8.5312387,,,,,,
30479061,,An der Amtsweide,,53.1926575,8.5345694,,,,,,
2295106466,,Hanfstraße,,53.1912798,8.538999,,,,,,
2009210904,,Buschdeel,,53.1898039,8.5437273,,,,,,
595351282,,Dillener Park,,53.1882902,8.5481968,,,,,,
30479084,,Rönnebecker Straße,,53.1850591,8.5562141,,,,,,
595656454,,Fähre Blumenthal,,53.1831407,8.5626482,,,,,,
595655716,,Zum Donaufleet,,53.181612,8.5679233,,,,,,
595653009,,Blumenthal/Markt,,53.1814497,8.5733594,,,,,,
5057205508,,Bf Blumenthal (Provisorium),,53.1818491,8.579662,,,,,,
610645739,,Klinikum Bremen-Nord,,53.1846315,8.5941621,,,,,,
611829121,,Löhstraße,,53.1848246,8.5981325,,,,,,
610645743,,Blumenhorster Straße,,53.1845831,8.6052617,,,,,,
610645751,,Fährer Kämpe,,53.1842752,8.6137564,,,,,,
604557667,,Bahnhof Aumund,,53.1836679,8.6194136,,,,,,
604557654,,Aumunder Heide,,53.1777784,8.6187892,,,,,,
604557648,,G.-Heinemann-Bürgerhaus,,53.1744423,8.6183154,,,,,,
604557538,,Gerhard-Rohlfs-Straße,,53.1715883,8.6217326,,,,,,
2446627885,,Bf Vegesack,,53.1693108,8.6282645,,,,,,
2156161422,,Friedrichsdorfer Straße,,53.1710113,8.6356517,,,,,,
933372724,,Auf dem Krümpel,,53.1731883,8.6394142,,,,,,
247491705,,Bf Schönebeck,,53.1739247,8.6505384,,,,,,
933372808,,Tannenhof,,53.1751945,8.661683,,,,,,
933372857,,Am Bahnhof St. Magnus,,53.1745821,8.6702562,,,,,,
933372873,,Holthorster Weg,,53.1733832,8.6766639,,,,,,
2156162545,,Zum Kränholm,,53.1724318,8.6799259,,,,,,
933372936,,Bahnhof Lesum,,53.1710788,8.6856013,,,,,,
4427884442,,Rotdornallee,,53.1730713,8.6871524,,,,,,
2156161361,,Am Heidbergstift,,53.1738682,8.6982649,,,,,,
2156161381,,Burgdammer Postweg,,53.175088,8.7061729,,,,,,
2295106464,,Goldbergplatz,,53.1705195,8.7026666,,,,,,
610570303,,Stader Landstraße,,53.1671938,8.7020766,,,,,,
559972438,,Bahnhof Burg,,53.1602562,8.7045129,,,,,,
2000766692,,Burg,,53.1550585,8.7046159,,,,,,
2156161368,,An Smidts Park,,53.1513481,8.7093062,,,,,,
610554128,,Am Geestkamp,,53.146997,8.7115841,,,,,,
2156161495,,Mittelsbürener Landstraße,,53.1430324,8.7147226,,,,,,
2156162488,,Von-Ossietzky-Straße,,53.1378922,8.7236253,,,,,,
2156161410,,Dohlenstraße,,53.1351442,8.7315875,,,,,,
2156162413,,Ritterhuder Heerstraße,,53.1332437,8.7378232,,,,,,
2156161358,,Am Fuchsberg,,53.129939,8.7429647,,,,,,
2156161398,,Diako,,53.1261756,8.7472988,,,,,,
2156161468,,Karl-Bröger-Straße,,53.1244934,8.7492198,,,,,,
4426707498,,Gröpelingen,,53.1207552,8.7525277,,,,,,
604557551,,Bf Vegesack,,53.1695679,8.6274031,,,,,,
4402624145,,Gerhard-Rohlfs-Straße,,53.1717105,8.6213961,,,,,,
604557627,,G.-Heinemann-Bürgerhaus,,53.1747178,8.6177169,,,,,,
604557660,,Aumunder Heide,,53.1784547,8.6188619,,,,,,
285641853,,Bahnhof Aumund,,53.1834302,8.6193937,,,,,,
2396842512,,Wilhelm-Zöllig-Straße,,53.1866723,8.6190654,,,,,,
2295106484,,Lerchenstraße,,53.1910877,8.618366,,,,,,
2396842312,,Milchstraße,,53.1928813,8.6169186,,,,,,
2295106449,,Aumunder Weidestraße,,53.1949333,8.6146293,,,,,,
4384260117,,Auf dem Bockhorn,,53.2130734,8.5852112,,,,,,
2396842265,,Bockhorn/Landesgrenze,,53.2164182,8.5857912,,,,,,
3643981595,,Schillerstraße,,53.5328666,8.5951843,,,,,,
1005664653,,Konrad-Adenauer-Platz,,53.5320197,8.5898914,,,,,,
3351484189,,Georg-Seebeck-Straße,,53.5258123,8.5899652,,,,,,
987469892,,Schaufenster Fischereihafen,,53.5220939,8.5898986,,,,,,
987482655,,Am Schaufenster/Gera,,53.5211033,8.5847685,,,,,,
3644924430,,Am Fischbahnhof,,53.5214682,8.5801973,,,,,,
987482658,,Lengstraße,,53.5201861,8.5798343,,,,,,
3644924445,,Heringstraße,,53.5173371,8.5829554,,,,,,
987482656,,Am Baggerloch,,53.5146487,8.5858856,,,,,,
987569320,,Halle XVII,,53.5129145,8.5872488,,,,,,
987751564,,Frosta,,53.509947,8.588259,,,,,,
988408806,,Lofotenstraße,,53.5081901,8.5888266,,,,,,
3644924460,,Spitzbergenstraße,,53.5037161,8.5902541,,,,,,
841990266,,Neufundlandstraße,,53.50128,8.5910366,,,,,,
3644924437,,Fladengrund,,53.4975053,8.5922181,,,,,,
429191278,,Am Luneort,,53.4952444,8.5932115,,,,,,
1656970059,,Seepark-Klinik Debstedt,,53.6167298,8.6282007,,,,,,
992688798,,Königsheide,,53.5927672,8.5978705,,,,,,
992698729,,Parkstraße,,53.5882923,8.5974643,,,,,,
992734915,,Eisenbahnstraße,,53.56698,8.594901,,,,,,
992738900,,Bernh.-Krause-Straße,,53.5682355,8.5924428,,,,,,
992765261,,Goethestraße,,53.5607142,8.580014,,,,,,
1687324534,,Pestalozzistraße,,53.5605052,8.5738276,,,,,,
155375623,,Rotersand,,53.5604005,8.5676734,,,,,,
992771619,,Waldemar-Becké-Platz,,53.5559122,8.5683869,,,,,,
992775235,,Schleusenstraße,,53.5520515,8.5719881,,,,,,
423289671,,Martin-Donandt-Platz,,53.5494501,8.5734096,,,,,,
1680914769,,Historisches Museum,,53.5389841,8.5870702,,,,,,
1680914753,,Columbusstraße / Weserfähre,,53.5373515,8.5864193,,,,,,
992814252,,Hoebelstraße,,53.5198213,8.5895791,,,,,,
992815917,,Heidacker,,53.5164984,8.5922017,,,,,,
3644972411,,Friedhof Wulsdorf,,53.5132103,8.5941271,,,,,,
992823875,,Wulsdorf Mitte,,53.5048149,8.5990668,,,,,,
1001437394,,Am Jedutenberg,,53.5011971,8.6003511,,,,,,
992823873,,Steinacker,,53.4985511,8.6008377,,,,,,
318001830,,Deichhämme,,53.4965821,8.6012229,,,,,,
3644339604,,Bohnenbreden,,53.4948108,8.5991857,,,,,,
992831120,,Schiffshören,,53.4915224,8.5952539,,,,,,
992832618,,Am Lunedeich,,53.4893911,8.595559,,,,,,
3644924447,,Hornbach,,53.4872371,8.5989227,,,,,,
3446999222,,IKEA,,53.4895578,8.6041779,,,,,,
1335830872,,Carsten-Börger-Straße,,53.4919598,8.5988049,,,,,,
3999065888,,Bielefelder Straße,,53.5098041,8.5961195,,,,,,
1014321444,,Wulsdorf Mitte,,53.5051846,8.5998322,,,,,,
1014317133,,Vieländer Weg,,53.5038821,8.6047987,,,,,,
1014279952,,Poggenbruchstraße,,53.5032136,8.6086952,,,,,,
1001081275,,Ringstraße,,53.5038421,8.6117991,,,,,,
1001076934,,Bahnhofstraße,,53.505655,8.6110904,,,,,,
1014754382,,Weißdornweg,,53.5790179,8.6292788,,,,,,
1593914919,,Spadener Holz,,53.571835,8.6263463,,,,,,
1014792261,,Friedhof Spadener Höhe,,53.5707017,8.6118586,,,,,,
1014798898,,Striegauer Straße,,53.5706928,8.6080266,,,,,,
1014798905,,Königshütter Straße,,53.5703786,8.6033648,,,,,,
176533944,,Bahnhof Lehe,,53.5666132,8.5989236,,,,,,
1014841281,,Klinik Bürgerpark,,53.5311999,8.6022941,,,,,,
1864731637,,Schulzentrum C. v. Ossietzky,,53.5290607,8.6147141,,,,,,
1014846556,,Ludwig-Börne-Straße,,53.528705,8.6202485,,,,,,
1014848091,,Schiffdorferdamm,,53.5297136,8.6271426,,,,,,
1014859065,,Veerenholzstraße,,53.5306804,8.6317154,,,,,,
1829965625,,Postbrookstraße,,53.5327498,8.6328882,,,,,,
1829947137,,Klinikum Bremerhaven,,53.5376458,8.6390796,,,,,,
3653100363,,Stadtgrenze Schiffdorf,,53.5309031,8.6400361,,,,,,
1014876157,,Bohlenstraße,,53.531011,8.6456952,,,,,,
3653100355,,Schiffdorf Mitte,,53.5315014,8.6543941,,,,,,
1003725622,,Eichenweg,,53.5840034,8.6040418,,,,,,
1003725608,,Bredenweg,,53.5808799,8.6045367,,,,,,
389382002,,Schierholzweg,,53.5776333,8.6043899,,,,,,
389382011,,Kreuzburger Straße,,53.5737492,8.6036034,,,,,,
3653140480,,Königshütter Straße,,53.5706927,8.6018909,,,,,,
1015078864,,Eschackerstraße,,53.5308404,8.6368311,,,,,,
3547377600,,Stadtgrenze Imsum,,53.6060153,8.5349148,,,,,,
3547373373,,Anne-Frank-Schule,,53.6033973,8.5346565,,,,,,
3547377604,,Weddewarden,,53.6005207,8.5352831,,,,,,
3640305902,,Ziegelei,,53.5954038,8.544987,,,,,,
3640305906,,Überseering,,53.592139,8.5481094,,,,,,
3653898981,,Grauwallring-West,,53.5896826,8.5589228,,,,,,
402430134,,Grauwallring-Ost,,53.588792,8.5628265,,,,,,
389791535,,Tierheim,,53.5867963,8.5738931,,,,,,
3653898984,,Marschenhaus,,53.586169,8.5792127,,,,,,
3653899006,,Wurthacker,,53.5842461,8.5850082,,,,,,
1001066885,,Jägerhof,,53.5823587,8.5900582,,,,,,
3642086323,,Twischlehe,,53.5793202,8.5914116,,,,,,
3642086310,,Gaußschule / Bad 3,,53.5783184,8.5886333,,,,,,
3642314249,,Eckernfeldstraße,,53.5763607,8.58847,,,,,,
3642314254,,Gesundheitsamt,,53.5755933,8.5914104,,,,,,
3650396217,,Flötenkiel,,53.5717719,8.596446,,,,,,
30891919,,Hauptbahnhof,,53.0820848,8.8130985,,,,,,
4426707499,,Gröpelingen,,53.1212627,8.7529198,,,,,,
2156161499,,Mittelsbürener Landstraße,,53.1431404,8.7144962,,,,,,
610585793,,Bahnhof Burg,,53.1609236,8.7042392,,,,,,
2295106465,,Goldbergplatz,,53.1712249,8.7029512,,,,,,
29857182,,Roland-Center,,53.0487952,8.7430904,,,,,,
4423820013,,Hochschule Bremen,,53.0722963,8.7910298,,,,,,
2574881709,,Westerstraße,,53.0749293,8.794895,,,,,,
2573585065,,"Am Brill (Bgm.-Smidt-Straße), Bussteig/Gleis A",,53.0784851,8.8003056,,,,,,
2573585069,,Am Wall,,53.080753,8.804569,,,,,,
2570903290,,Hauptbahnhof,,53.0814551,8.8138486,,,,,,
2585410459,,Kurfürstenallee,,53.0818259,8.855095,,,,,,
769037342,,Barbarossastraße,,53.0790359,8.8606665,,,,,,
26280993,,Julius-Brecht-Allee,,53.0747849,8.8689116,,,,,,
393394117,,Polizeipräsidium,,53.0789564,8.8782469,,,,,,
26666645,,Wilhelm-Leuschner-Straße,,53.0790688,8.8858772,,,,,,
769037367,,Berliner Freiheit,,53.0793705,8.893557,,,,,,
393385145,,Carl-Goerdeler-Straße,,53.0793075,8.8965901,,,,,,
26666603,,Dietrich-Bonhoeffer-Straße,,53.0785887,8.9031445,,,,,,
26666608,,Kurt-Huber-Straße,,53.0784232,8.9109935,,,,,,
769037406,,Erkelenzer Straße,,53.0779292,8.9208936,,,,,,
768878174,,Mülheimer Straße,,53.0749393,8.9258581,,,,,,
768878196,,Düsseldorfer Straße,,53.0734308,8.9310787,,,,,,
415556980,,Osterholzer Landstraße,,53.0740712,8.9361457,,,,,,
768878190,,Ellenerbrokstraße,,53.0735374,8.94602,,,,,,
768878199,,Graubündener Straße,,53.0711158,8.9489359,,,,,,
21096105,,Schweizer Eck,,53.0649876,8.9504627,,,,,,
2435197749,,Engadiner Straße,,53.0664174,8.9558757,,,,,,
2435198365,,Neuwieder Straße,,53.0666011,8.9622401,,,,,,
2435198440,,Tenever-Zentrum,,53.0611662,8.9638458,,,,,,
1835333967,,Teneverstraße,,53.057741,8.9632781,,,,,,
1676641427,,Werner-Steenken-Straße,,53.0527215,8.961868,,,,,,
2435198445,,Weserpark,,53.048865,8.9605242,,,,,,
2585412289,,Weserpark-Süd,,53.0461722,8.9572368,,,,,,
2435197750,,Nußhorn,,53.0437957,8.9505797,,,,,,
2235507930,,Bf Mahndorf,,53.0402924,8.9444623,,,,,,
2435197751,,Nußhorn,,53.0439284,8.9511465,,,,,,
2585412295,,Weserpark-Süd,,53.0464147,8.9579196,,,,,,
2435198447,,Weserpark,,53.0491856,8.9607062,,,,,,
2435198444,,Werner-Steenken-Straße,,53.0538198,8.9623499,,,,,,
2435198441,,Teneverstraße,,53.0580565,8.9630183,,,,,,
2435198439,,Tenever-Zentrum,,53.0610678,8.9638295,,,,,,
2435198375,,Neuwieder Straße,,53.0668007,8.9617335,,,,,,
1676656350,,Engadiner Straße,,53.0664571,8.9554918,,,,,,
30910468,,Schweizer Eck,,53.0652217,8.9500432,,,,,,
2578723693,,Graubündener Straße,,53.0715063,8.9486589,,,,,,
2578728579,,Ellenerbrokstraße,,53.0734904,8.9461961,,,,,,
768878172,,Osterholzer Landstraße,,53.0739814,8.9352257,,,,,,
26666610,,Düsseldorfer Straße,,53.0733458,8.9299982,,,,,,
768878193,,Mülheimer Straße,,53.0749228,8.9259467,,,,,,
769037354,,Erkelenzer Straße,,53.0779429,8.9210315,,,,,,
769037377,,Kurt-Huber-Straße,,53.0784587,8.9104287,,,,,,
26666601,,Dietrich-Bonhoeffer-Straße,,53.0787203,8.9025734,,,,,,
769037351,,Carl-Goerdeler-Straße,,53.0793327,8.8967214,,,,,,
393383172,,Berliner Freiheit,,53.079395,8.8927409,,,,,,
769037394,,Wilhelm-Leuschner-Straße,,53.0790695,8.8852424,,,,,,
769037375,,Polizeipräsidium,,53.0789478,8.8776086,,,,,,
26280998,,Julius-Brecht-Allee,,53.0748738,8.869632,,,,,,
410366591,,Barbarossastraße,,53.0790134,8.8607842,,,,,,
2585410460,,Kurfürstenallee,,53.0821894,8.8544852,,,,,,
768090780,,Kirchbachstraße,,53.0851601,8.8484186,,,,,,
768090939,,Metzer Straße,,53.0832272,8.8418742,,,,,,
2268946939,,St. Joseph-Stift,,53.0825214,8.8369807,,,,,,
2268946268,,Hollerallee,,53.0812708,8.8317999,,,,,,
281925150,,Parkstraße,,53.0797472,8.8273638,,,,,,
773207169,,Am Dobben,,53.0786276,8.8230645,,,,,,
768090818,,Rembertistraße,,53.0807081,8.8181141,,,,,,
2570903293,,Hauptbahnhof,,53.0820409,8.8127063,,,,,,
2573585068,,Am Wall,,53.0803272,8.8036795,,,,,,
2573585064,,"Am Brill (Bgm.-Smidt-Straße), Bussteig/Gleis B",,53.0780774,8.7996006,,,,,,
2574881707,,Westerstraße,,53.0737616,8.7930355,,,,,,
4423791640,,Hochschule Bremen,,53.0723525,8.7910438,,,,,,
2574881187,,Pappelstraße,,53.0695539,8.7868857,,,,,,
29857227,,Neuenlander Straße,,53.0664383,8.7815159,,,,,,
2435197747,,Duckwitzstraße,,53.0648471,8.7789489,,,,,,
29857216,,Solinger Straße,,53.0616192,8.7730668,,,,,,
29857210,,Bardenflethstraße,,53.060542,8.7665343,,,,,,
416834335,,Norderländer Straße,,53.0583617,8.7588442,,,,,,
29857181,,Roland-Center,,53.048676,8.742376,,,,,,
471294413,,Heinrich-Plett-Straße,,53.5942036,8.6215317,,,,,,
3654083670,,Entenmoorweg,,53.5966996,8.6261868,,,,,,
3654083665,,Am Gehölz,,53.5978852,8.6282792,,,,,,
3654083672,,Fehrmoorweg,,53.6006965,8.6320811,,,,,,
3654083676,,Pappelweg,,53.6011908,8.6273816,,,,,,
347132748,,Buchenweg,,53.6016726,8.6227474,,,,,,
3654083668,,Brunnenstraße,,53.5976732,8.6137079,,,,,,
3654083674,,Hermann-Löns-Straße,,53.5963156,8.6111778,,,,,,
3654083664,,Ahornweg,,53.597601,8.6079995,,,,,,
3654083666,,Blumenauer Weg,,53.595207,8.6041532,,,,,,
1680563909,,Dt. Schifffahrtsmuseum,,53.5397746,8.5802554,,,,,,
3444604756,,Weserfähre,,53.5379129,8.5845869,,,,,,
3643979075,,Konrad-Adenauer-Platz,,53.5315556,8.5895726,,,,,,
3644339615,,Carsten-Börger-Straße,,53.4920315,8.6003687,,,,,,
4012244846,,Unnamed bus stop.,,53.5934791,8.5984355,,,,,,
3654083675,,Königsheide,,53.5934495,8.5984862,,,,,,
297579528,,Stockholmer Straße,,53.1740398,8.7200874,,,,,,
2636524589,,Stockholmer Straße,,53.1741773,8.7204238,,,,,,
96952907,,Überseering,,53.5922671,8.5477899,,,,,,
1928718030,,Ziegelei,,53.5960629,8.5444797,,,,,,
3640305905,,Zolltor Wurster Straße,,53.5960579,8.5394567,,,,,,
505009285,,Container-Terminal II,,53.5877924,8.5425252,,,,,,
1861592316,,Container-Terminal I,,53.5809575,8.5480631,,,,,,
3640304689,,Osthafen,,53.5784963,8.5587181,,,,,,
3640304687,,Erzhafen,,53.5732993,8.560283,,,,,,
1841784812,,Lloyd-Werft,,53.5689828,8.5603033,,,,,,
505009205,,Franziusstraße,,53.567627,8.5663716,,,,,,
1860264089,,Rotersand,,53.5614125,8.5655188,,,,,,
26496854,,Bremen Neustadt,,53.0763958,8.7863561,,,,,,
775544377,,Bremen Hauptbahnhof,,53.0830148,8.8133729,,,,,,
775553931,,Bremen Hbf,,53.0830354,8.8137405,,,,,,
2424458583,,Rablinghausen,,53.0960089,8.7461861,,,,,,
776957332,,Roccoweg,,53.0944835,8.7480465,,,,,,
1116949725,,Bakeweg,,53.092415,8.7506062,,,,,,
255402877,,Stromer Straße,,53.0891536,8.7532339,,,,,,
776957281,,Woltmershauser Friedhof,,53.0872366,8.7621408,,,,,,
776957176,,Rechtenflether Straße,,53.0843034,8.7664234,,,,,,
776957114,,Wildeshauser Straße,,53.083059,8.7688668,,,,,,
255403479,,Dötlinger Straße,,53.0815586,8.7724923,,,,,,
776957367,,Huder Straße,,53.0795309,8.7763892,,,,,,
776957187,,Akazienstraße,,53.0781476,8.7807961,,,,,,
1116949748,,Bf Neustadt,,53.0760253,8.7835494,,,,,,
2191734466,,Hohentorsplatz,,53.0734262,8.7897279,,,,,,
2574881708,,Westerstraße,,53.0740026,8.7953395,,,,,,
773239098,,Am Neuen Markt,,53.07293,8.7994075,,,,,,
417636750,,Wilhelm-Kaisen-Brücke,,53.0723325,8.8038247,,,,,,
817605386,,Domsheide,,53.0746602,8.8086459,,,,,,
3225709788,,Schüsselkorb,,53.0770543,8.8099406,,,,,,
773239121,,Herdentor,,53.0799058,8.8103932,,,,,,
25755492,,Hauptbahnhof,,53.0815495,8.8139724,,,,,,
25570928,,Blumenthalstraße,,53.0836855,8.8180603,,,,,,
268412140,,Am Stern,,53.0839274,8.8256291,,,,,,
26242919,,St. Joseph-Stift,,53.0823512,8.8375686,,,,,,
1637705652,,Verdunstraße,,53.0809824,8.8438268,,,,,,
26310106,,Kurfürstenallee,,53.0824345,8.8552341,,,,,,
776957161,,Loignystraße,,53.0824177,8.86014,,,,,,
776957320,,Brandenburger Straße,,53.0820559,8.8676378,,,,,,
776070319,,Heinrich-Hertz-Straße,,53.083088,8.8750287,,,,,,
776957337,,August-Bebel-Allee,,53.0856884,8.8735351,,,,,,
2001427087,,Phillip-Scheidemann-Straße,,53.0857963,8.8797436,,,,,,
776957382,,Otto-Braun-Straße,,53.0860639,8.8868895,,,,,,
818850567,,Sebaldsbrück,,53.0595049,8.9003708,,,,,,
818850411,,Schloßparkstraße,,53.0592564,8.896523,,,,,,
776070389,,Trinidadstraße,,53.0603756,8.8929857,,,,,,
818850219,,Bf Sebaldsbrück,,53.0624323,8.8870847,,,,,,
2581346026,,Föhrenstraße,,53.0655163,8.8779417,,,,,,
818850636,,Malerstraße,,53.0671056,8.8712143,,,,,,
669530263,,Ludwig-Quidde-Straße,,53.06803,8.8615791,,,,,,
818850711,,Bennigsenstraße,,53.0704415,8.8565375,,,,,,
818850772,,Bei den Drei Pfählen,,53.0711385,8.8508182,,,,,,
669554882,,Am Hulsberg,,53.0722963,8.8430528,,,,,,
775573178,,St.-Jürgen-Straße,,53.0709044,8.8328053,,,,,,
818906415,,Brunnenstraße,,53.072371,8.8283696,,,,,,
775573144,,Sielwall,,53.073057,8.8243432,,,,,,
818906418,,Wulwesstraße,,53.0726372,8.8198127,,,,,,
818906420,,Theater am Goetheplatz,,53.0724263,8.816531,,,,,,
775590214,,Domsheide,,53.0745578,8.8095593,,,,,,
2573585075,,Obernstraße,,53.076827,8.806013,,,,,,
2573585067,,"Am Brill (Hutfilter-/Obernstraße), Bussteig F",,53.0788174,8.8013534,,,,,,
2573586825,,Radio Bremen,,53.0812345,8.7964569,,,,,,
775573177,,Doventor,,53.0840349,8.7959984,,,,,,
669674392,,Lloydstraße,,53.0860234,8.7908044,,,,,,
30343610,,Haferkamp,,53.0893446,8.7927146,,,,,,
30343604,,Hansestraße,,53.0920973,8.7905747,,,,,,
2562313418,,Wartburgstraße,,53.0937555,8.788767,,,,,,
2562313416,,Utbremer Straße,,53.0956885,8.7908739,,,,,,
2562313293,,Gustavstraße,,53.0980686,8.7887688,,,,,,
1993183914,,Bf Walle,,53.1028231,8.7846807,,,,,,
670290870,,Waller Straße,,53.1060027,8.7791237,,,,,,
25905745,,Waller Friedhof,,53.1082723,8.7739599,,,,,,
25905744,,Altenescher Straße,,53.1103543,8.7700282,,,,,,
2578907562,,Moorstraße,,53.1129038,8.7651033,,,,,,
670300966,,Lindenhofstraße,,53.1165187,8.7584063,,,,,,
2156161429,,Gröpelingen,,53.1205166,8.7516503,,,,,,
610596971,,Gröpelingen,,53.1209176,8.7526619,,,,,,
670301009,,Lindenhofstraße,,53.115633,8.7596621,,,,,,
2578907561,,Moorstraße,,53.1126533,8.7655207,,,,,,
670291059,,Altenescher Straße,,53.1105813,8.7695439,,,,,,
2188478395,,Waller Friedhof,,53.1082845,8.7738666,,,,,,
26563145,,Waller Straße,,53.1062024,8.7784958,,,,,,
1993183907,,Bf Walle,,53.101786,8.7855401,,,,,,
2562313292,,Gustavstraße,,53.0976985,8.7890399,,,,,,
26563208,,Utbremer Straße,,53.095419,8.7910534,,,,,,
2562313417,,Wartburgstraße,,53.0934234,8.789058,,,,,,
30343607,,Hansestraße,,53.0910503,8.7915004,,,,,,
31297481,,Haferkamp,,53.0881995,8.7923391,,,,,,
775590182,,Lloydstraße,,53.085791,8.7913403,,,,,,
775573224,,Doventor,,53.0836773,8.7967125,,,,,,
2878153730,,St.-Jürgen-Straße,,53.0709635,8.8334203,,,,,,
669554876,,Am Hulsberg,,53.0724291,8.8423023,,,,,,
667377603,,Bei den Drei Pfählen,,53.0712054,8.8503057,,,,,,
669530241,,Bennigsenstraße,,53.0705374,8.8557905,,,,,,
818850677,,Ludwig-Quidde-Straße,,53.0672159,8.863547,,,,,,
818850637,,Malerstraße,,53.067136,8.8717334,,,,,,
2581346022,,Föhrenstraße,,53.0653504,8.8783162,,,,,,
818850218,,Bf Sebaldsbrück,,53.0625339,8.8866854,,,,,,
776070416,,Trinidadstraße,,53.0600784,8.8937542,,,,,,
108332631,,Schloßparkstraße,,53.0591547,8.8972911,,,,,,
818850535,,Sebaldsbrück,,53.0598562,8.8995325,,,,,,
818906422,,Humboldtstraße,,53.075067,8.8225838,,,,,,
818906424,,Am Dobben,,53.0785718,8.823006,,,,,,
79721574,,Falkenstraße,,53.0829295,8.8067011,,,,,,
1989827359,,Daniel-von-Büren-Straße,,53.0849654,8.8022771,,,,,,
775573238,,Doventorsteinweg,,53.0847551,8.7993922,,,,,,
30343545,,Haferkamp,,53.0881007,8.7941747,,,,,,
1876119139,,Doventorsteinweg,,53.0844664,8.7996603,,,,,,
2325735414,,Daniel-von-Büren-Straße,,53.084731,8.8027469,,,,,,
29173905,,Falkenstraße,,53.0825984,8.8071266,,,,,,
818906425,,Am Dobben,,53.0783634,8.8234285,,,,,,
818906423,,Humboldtstraße,,53.075388,8.8226327,,,,,,
703392782,,Kattenturm-Mitte,,53.0361927,8.8275569,,,,,,
703392937,,Borgwardstraße,,53.0460325,8.8451823,,,,,,
703392944,,Habenhauser Brückenstraße,,53.0508585,8.8488035,,,,,,
703392963,,Karl-Carstens-Brücke,,53.0545758,8.8513252,,,,,,
2438773862,,Georg-Bitter-Straße,,53.0672311,8.8531917,,,,,,
694827187,,Stader Straße/Hamburger Straße,,53.0683189,8.8490801,,,,,,
667425930,,Bei den Drei Pfählen,,53.0710065,8.850506,,,,,,
703396482,,Stader Straße/Bismarckstraße,,53.0742286,8.8533035,,,,,,
2254867511,,Arensburgstraße,,53.0781482,8.8552265,,,,,,
667287902,,Kurfürstenallee,,53.0821821,8.8544556,,,,,,
667425934,,Kirchbachstraße,,53.0855799,8.8499171,,,,,,
667425936,,H.-H.-Meier-Allee,,53.0889486,8.8419203,,,,,,
773239118,,Crüsemannallee,,53.0918859,8.8354772,,,,,,
696875019,,Busestraße,,53.094945,8.8376486,,,,,,
254360323,,Kulenkampffallee,,53.0982713,8.8394643,,,,,,
667425957,,Parkallee,,53.0995535,8.8371354,,,,,,
667425960,,Munte,,53.1039465,8.8402016,,,,,,
667425961,,Wiener Straße,,53.1060659,8.8460738,,,,,,
667425974,,Universität-Süd,,53.105576,8.8507809,,,,,,
667425988,,Universität/Zentralbereich,,53.1079083,8.8525418,,,,,,
667425991,,Universität-Ǹord,,53.110148,8.8547097,,,,,,
2554663779,,Linzer Straße,,53.1082125,8.8614159,,,,,,
666961396,,Universität-Ost,,53.1067229,8.8640142,,,,,,
667425995,,Universität-Ost,,53.106543,8.863785,,,,,,
667425992,,Linzer Straße,,53.1087255,8.8608982,,,,,,
667425958,,Munte,,53.1056499,8.841577,,,,,,
2111684023,,Parkallee,,53.0991677,8.8373336,,,,,,
667287931,,Busestraße,,53.0950161,8.8376882,,,,,,
773239096,,Crüsemannallee,,53.0916141,8.8352811,,,,,,
2297684571,,H.-H.-Meier-Allee,,53.0889265,8.841985,,,,,,
667425935,,Kirchbachstraße,,53.0858598,8.8496717,,,,,,
696952909,,Kurfürstenallee,,53.0818362,8.8551124,,,,,,
29584761,,Arensburgstraße,,53.0789322,8.8549685,,,,,,
667425933,,Stader Straße/Bismarckstraße,,53.074392,8.8535166,,,,,,
667425931,,Bei den Drei Pfählen,,53.0716355,8.8508268,,,,,,
2580692493,,Stader Straße/Hamburger Straße,,53.067832,8.8497075,,,,,,
694825913,,Georg-Bitter-Straße,,53.0672615,8.8530059,,,,,,
703392964,,Karl-Carstens-Brücke,,53.0543694,8.8511926,,,,,,
703392945,,Habenhauser Brückenstraße,,53.0499726,8.8473834,,,,,,
249367858,,Borgwardstraße,,53.0455146,8.8446133,,,,,,
703392923,,Bruchhauser Straße,,53.0390004,8.8351102,,,,,,
703392829,,Agnes-Heineken-Straße,,53.0388748,8.8324062,,,,,,
254360322,,Kulenkampffallee,,53.0984775,8.8399385,,,,,,
2576185062,,Busestraße,,53.0950247,8.8376626,,,,,,
2576185065,,Crüsemannallee,,53.0916231,8.8352506,,,,,,
4204688091,,Bulthauptstraße,,53.0882282,8.8326979,,,,,,
768090891,,Brahmsstraße,,53.0857217,8.8305883,,,,,,
2576185055,,Am Stern,,53.0844645,8.8253426,,,,,,
2576185057,,Blumenthalstraße,,53.0835603,8.817513,,,,,,
2570903294,,Hauptbahnhof,,53.0821225,8.8128104,,,,,,
2573585072,,Herdentor,,53.0792889,8.809635,,,,,,
1269971636,,Schüsselkorb,,53.0770687,8.8097593,,,,,,
21316819,,Domsheide,,53.0742949,8.807809,,,,,,
2573586831,,Wilhelm-Kaisen-Brücke,,53.0719478,8.8030112,,,,,,
2574881185,,Am Neuen Markt,,53.0727338,8.7999131,,,,,,
773271739,,Universität-Ǹord,,53.1107029,8.8549937,,,,,,
2576185927,,Universität/Zentralbereich,,53.1075033,8.8521764,,,,,,
766862396,,Universität-Süd,,53.1050268,8.851545,,,,,,
766862390,,Lise-Meitner-Straße,,53.1037232,8.8556709,,,,,,
766862392,,Berufsbildungswerk,,53.1022493,8.8592545,,,,,,
768090897,,Riensberg,,53.0964524,8.8530971,,,,,,
768090752,,Wätjenstraße,,53.0948578,8.8502377,,,,,,
768090820,,Emmastraße,,53.091221,8.8455615,,,,,,
768090788,,H.-H.-Meier-Allee,,53.0888922,8.8425844,,,,,,
768090876,,Joseph-Haydn-Straße,,53.0871985,8.8364286,,,,,,
773271548,,Theater am Leibnizplatz,,53.0697033,8.7991824,,,,,,
417636737,,Gastfeldstraße,,53.0665153,8.7938586,,,,,,
21316807,,Schleiermacherstraße,,53.0636438,8.7892538,,,,,,
417636725,,BSAG-Zentrum,,53.0610676,8.7852592,,,,,,
2562313300,,Neuenlander Kämpe,,53.056445,8.7840224,,,,,,
773271743,,Flughafen,,53.052717,8.7865755,,,,,,
773271742,,Flughafen-Süd,,53.050399,8.7899433,,,,,,
2878157840,,Unnamed tram stop.,,53.0709429,8.8334116,,,,,,
2998328678,,Lilienthal-Mitte,,53.1432362,8.9088207,,,,,,
2998328677,,Feldhäuser Straße,,53.1401012,8.9051981,,,,,,
2998329537,,Trupe,,53.1378769,8.9011563,,,,,,
2998329538,,Truperdeich,,53.1354188,8.8985401,,,,,,
30356052,,Borgfeld,,53.1267724,8.898872,,,,,,
2568872799,,Daniel-Jacobs-Allee,,53.1235742,8.9000555,,,,,,
2568894539,,Högerweg,,53.1154986,8.8940111,,,,,,
2568894541,,Peter-Henlein-Straße,,53.1131043,8.8916765,,,,,,
2568894540,,Kopernikusstraße,,53.108628,8.8873173,,,,,,
2568903537,,Werner-von-Siemens-Straße,,53.1049107,8.8837186,,,,,,
2583933068,,Horner Mühle,,53.101482,8.8796043,,,,,,
2583933443,,Vorstraße,,53.1013775,8.8741625,,,,,,
2583933066,,Horn,,53.0965197,8.8703289,,,,,,
768090935,,Bürgermeister-Spitta-Allee,,53.0913668,8.8697126,,,,,,
768090767,,Focke-Museum,,53.0903227,8.8632389,,,,,,
768090826,,Friedhofstraße,,53.0886836,8.8555109,,,,,,
2570903292,,Hauptbahnhof,,53.0819561,8.8125982,,,,,,
271525897,,Theater am Leibnizplatz,,53.0696491,8.7993911,,,,,,
1305261474,,Rotes-Kreuz-Krankenhaus,,53.0675156,8.8023354,,,,,,
2444846536,,Schwankhalle (Schnürschuh Theater),,53.0647461,8.806938,,,,,,
845861668,,Kirchweg,,53.0619561,8.8105042,,,,,,
1328863589,,Rosenpfad,,53.0585983,8.8129524,,,,,,
1328863676,,Am Dammacker,,53.0557948,8.8153173,,,,,,
773832721,,Huckelriede,,53.0516765,8.8197883,,,,,,
767994981,,Sielhof,,53.0485969,8.8209333,,,,,,
287688041,,Robert-Koch-Straße,,53.0416178,8.8239848,,,,,,
767994946,,Klinikum links der Weser,,53.0375198,8.8223828,,,,,,
767994995,,Kattenturm-Mitte,,53.0359134,8.826975,,,,,,
287688216,,Heukämpendamm,,53.032168,8.838517,,,,,,
767994976,,Twiedelftsweg,,53.0291488,8.8380345,,,,,,
21316732,,Arsten,,53.0276735,8.8375432,,,,,,
49510051,,Weserwehr,,53.0633186,8.8680108,,,,,,
694825924,,Hohwisch,,53.0661262,8.8608674,,,,,,
2580691248,,Georg-Bitter-Straße,,53.0672465,8.8532062,,,,,,
694825910,,Stader Straße/Hamburger Straße,,53.0681427,8.8480338,,,,,,
694825904,,Nienburger Straße,,53.0688203,8.8439629,,,,,,
694684599,,Weserstadion,,53.0699236,8.8375731,,,,,,
775573131,,St.-Jürgen-Straße,,53.0708404,8.8327849,,,,,,
782224504,,Eduard-Schopf-Allee,,53.0831746,8.7862073,,,,,,
2004616391,,Europahafen,,53.0852433,8.7802946,,,,,,
775573120,,Konsul-Smidt-Straße,,53.0868778,8.7825217,,,,,,
775590210,,Hansator,,53.0892462,8.7844252,,,,,,
775573104,,Grenzstraße,,53.0913885,8.7816541,,,,,,
775573096,,Elisabethstraße,,53.0951985,8.7781017,,,,,,
775573155,,Waller Ring,,53.0984387,8.7761544,,,,,,
775573164,,Emder Straße,,53.1018748,8.7735483,,,,,,
775573194,,Jadestraße,,53.1041763,8.7691836,,,,,,
775573132,,Grasberger Straße,,53.1088294,8.7635388,,,,,,
775573119,,Goosestraße,,53.1106555,8.7558156,,,,,,
31297745,,Use Akschen,,53.1127346,8.7524043,,,,,,
775573166,,Kap-Horn-Straße,,53.1159317,8.7526781,,,,,,
2004616392,,Hohweg,,53.1115603,8.7979349,,,,,,
2004616434,,Straubinger Straße,,53.1114196,8.7997474,,,,,,
2004616382,,Bernauer Straße,,53.1095755,8.8016239,,,,,,
2005646086,,Amselweg,,53.1077034,8.7967795,,,,,,
2004616411,,Bayernstraße,,53.1061777,8.7957519,,,,,,
297241078,,Holsteiner Straße,,53.1032117,8.793468,,,,,,
2382731841,,Bf Walle (Ratzeburger Str.),,53.1033368,8.7873001,,,,,,
251608167,,Bf Walle,,53.1021196,8.7846624,,,,,,
803947585,,Lange Reihe,,53.1003633,8.7796616,,,,,,
2004616405,,Speicher XI,,53.0960858,8.7729834,,,,,,
803947755,,Hochschule für Künste,,53.0976747,8.7696564,,,,,,
803947810,,Am Winterhafen,,53.1007144,8.7638619,,,,,,
2293164480,,Silbermannstraße,,53.0983719,8.7599993,,,,,,
2293164483,,Überseetor,,53.0946456,8.76714,,,,,,
2293164476,,Schuppen 1,,53.0897753,8.7773605,,,,,,
2293164024,,Konsul-Smidt-Straße,,53.0871972,8.7822517,,,,,,
2562313291,,Europahafen,,53.0853863,8.7802829,,,,,,
2562313286,,Eduard-Schopf-Allee,,53.0828862,8.7875871,,,,,,
2005089990,,Doventorstraße,,53.0822706,8.7974195,,,,,,
30891844,,Hauptbahnhof,,53.0814654,8.8138622,,,,,,
796499518,,Messe-Zentrum,,53.0845632,8.8167568,,,,,,
4963714324,,Ehrenfelsstraße,,53.1002698,8.7575131,,,,,,
4963714323,,Hafenkante,,53.1023211,8.7543954,,,,,,
29535910,,Messe-Zentrum,,53.0843859,8.816681,,,,,,
25755490,,Hauptbahnhof,,53.0820252,8.8126862,,,,,,
1383298413,,Doventorstraße,,53.0827264,8.7947213,,,,,,
2562313288,,Eduard-Schopf-Allee,,53.083172,8.786675,,,,,,
2562313290,,Europahafen,,53.0851466,8.7803136,,,,,,
2293164025,,Konsul-Smidt-Straße,,53.0874461,8.7820353,,,,,,
2293164477,,Schuppen 1,,53.0899058,8.7770891,,,,,,
2293164482,,Überseetor,,53.0935778,8.7694216,,,,,,
1992119087,,Silbermannstraße,,53.0975308,8.7613033,,,,,,
803947795,,Am Winterhafen,,53.1007482,8.7637045,,,,,,
797306473,,Speicher XI,,53.0966512,8.7731626,,,,,,
252108149,,Cuxhavener Straße,,53.1001796,8.7737322,,,,,,
794071890,,Waller Ring,,53.098976,8.7768118,,,,,,
803947578,,Lange Reihe,,53.1007113,8.7806679,,,,,,
297241079,,Bf Walle,,53.1028792,8.7859921,,,,,,
297241077,,Holsteiner Straße,,53.1030347,8.7946686,,,,,,
26262062,,Dithmarscher Freiheit,,53.1027495,8.7984953,,,,,,
2004616412,,Bayernstraße,,53.1066622,8.7959708,,,,,,
2005646081,,Amselweg,,53.107624,8.7970545,,,,,,
2004616381,,Bernauer Straße,,53.1094136,8.8015149,,,,,,
2004616435,,Straubinger Straße,,53.1115609,8.7998095,,,,,,
4963714325,,Ehrenfelsstraße,,53.1004474,8.7575144,,,,,,
777285286,,Hermann-Koenen-Straße,,53.0708498,8.9159959,,,,,,
776070236,,Mercedes-Benz Tor 8,,53.0648754,8.9141475,,,,,,
776070242,,Mercedes-Benz Tor 7,,53.0622965,8.9141404,,,,,,
776070205,,Osterholzer Friedhof,,53.0600789,8.9141778,,,,,,
29193485,,Schloßparkstraße,,53.0592396,8.8965134,,,,,,
2581346982,,Trinidadstraße,,53.0603608,8.8929718,,,,,,
2101920754,,Bf Sebaldsbrück,,53.0621246,8.8880691,,,,,,
776070212,,Parsevalstraße,,53.0671741,8.8878543,,,,,,
776070378,,Rennplatz,,53.0718887,8.8857369,,,,,,
776070359,,Schneverdinger Straße,,53.0762202,8.8813757,,,,,,
302094600,,Polizeipräsidium,,53.0793705,8.8785385,,,,,,
776070365,,Friedrich-Mißler-Straße,,53.0869659,8.8714913,,,,,,
768090884,,Bürgermeister-Spitta-Allee,,53.091061,8.8707339,,,,,,
768090937,,Horn,,53.0969523,8.8700641,,,,,,
20980464,,Berufsbildungswerk,,53.1028391,8.8584531,,,,,,
776070188,,Lise-Meitner-Straße,,53.1037253,8.8551512,,,,,,
776957180,,Friedrich-Stampfer-Straße,,53.0862701,8.8912221,,,,,,
776957357,,Otto-Braun-Straße,,53.086196,8.8865139,,,,,,
776957407,,Phillip-Scheidemann-Straße,,53.0859307,8.8796755,,,,,,
776957263,,August-Bebel-Allee,,53.0858285,8.8738212,,,,,,
776957396,,Brandenburger Straße,,53.082155,8.8676878,,,,,,
776957334,,Loignystraße,,53.0826519,8.8599457,,,,,,
776957287,,Kurfürstenallee,,53.0826339,8.8548936,,,,,,
776957328,,Verdunstraße,,53.0810794,8.8432529,,,,,,
2582083888,,St. Joseph-Stift,,53.0825069,8.836985,,,,,,
776957291,,Am Stern,,53.083969,8.8255375,,,,,,
25755491,,Hauptbahnhof,,53.0821074,8.8127911,,,,,,
773239108,,Herdentor,,53.0792831,8.8096598,,,,,,
817605404,,Domsheide,,53.0745608,8.8081808,,,,,,
773239116,,Wilhelm-Kaisen-Brücke,,53.0719372,8.8030383,,,,,,
773239117,,Am Neuen Markt,,53.0727257,8.7998906,,,,,,
776957330,,Westerstraße,,53.0746108,8.7932765,,,,,,
776957155,,Hohentorsplatz,,53.0732971,8.7893818,,,,,,
1116949751,,Bf Neustadt,,53.0762622,8.7832633,,,,,,
255403483,,Akazienstraße,,53.0784495,8.7799231,,,,,,
1116949737,,Huder Straße,,53.079793,8.7757115,,,,,,
2094251804,,Dötlinger Straße,,53.0818783,8.7715939,,,,,,
1116949734,,Rechtenflether Straße,,53.0844411,8.7660358,,,,,,
1116949732,,Woltmershauser Friedhof,,53.087603,8.7614167,,,,,,
1116949729,,Stromer Straße,,53.0890241,8.7536006,,,,,,
1116949726,,Bakeweg,,53.0919849,8.7509734,,,,,,
776957310,,Roccoweg,,53.094336,8.7482296,,,,,,
255402930,,Rablinghausen,,53.0962084,8.7459341,,,,,,
2077326588,,Weidedamm-Süd,,53.0963444,8.819227,,,,,,
2077326589,,Stuttgarter Straße,,53.0973595,8.8158288,,,,,,
2089968840,,Utbremer Ring,,53.0984062,8.8121396,,,,,,
777388468,,Fürther Straße,,53.0994801,8.807475,,,,,,
1920927927,,"Hemmstraße, Bussteig A",,53.0950802,8.8075566,,,,,,
777285373,,Lohmannstraße,,53.0931534,8.803883,,,,,,
2325735419,,Daniel-von-Büren-Straße,,53.0848947,8.8033547,,,,,,
777285243,,Doventor,,53.0838738,8.7986589,,,,,,
775573192,,Radio Bremen,,53.0808015,8.7971296,,,,,,
480770126,,"Am Brill (Martinistraße), Bussteig C",,53.0783392,8.8010963,,,,,,
2073742751,,Martinistraße,,53.0767781,8.8035361,,,,,,
30891841,,Hauptbahnhof,,53.0813899,8.8137633,,,,,,
676024124,,Rembertistraße,,53.0805021,8.8191403,,,,,,
1900167149,,Dobbenweg,,53.0786528,8.8262957,,,,,,
777285404,,Klinikum Bremen-Mitte,,53.0767407,8.8379326,,,,,,
29584917,,Friedrich-Karl-Straße,,53.0751836,8.8450824,,,,,,
29584910,,Stader Straße/Bismarckstraße,,53.0735362,8.8529295,,,,,,
1116969958,,Stresemannstraße,,53.0725235,8.857689,,,,,,
777285258,,Steubenstraße,,53.071535,8.8648432,,,,,,
242160827,,Julius-Brecht-Allee,,53.0740771,8.8699412,,,,,,
2565061501,,Müdener Straße,,53.0742351,8.8759761,,,,,,
777285339,,Wilseder-Berg-Straße,,53.072827,8.8794468,,,,,,
777285449,,Stellichter Straße,,53.0716483,8.8826266,,,,,,
564137507,,Rennplatz,,53.0714294,8.8872088,,,,,,
777285222,,Georg-Gries-Straße,,53.0715162,8.8922249,,,,,,
777285445,,Im Holter Feld,,53.0714947,8.9028933,,,,,,
777285194,,Wilhelm-Busch-Weg,,53.0713564,8.9066661,,,,,,
777285273,,Bottroper Straße,,53.0721294,8.9210028,,,,,,
777285509,,Einkaufszentrum Blockdiek,,53.0730083,8.9252685,,,,,,
310690136,,Krefelder Straße,,53.0708952,8.9300787,,,,,,
777285471,,Emmentaler Straße,,53.069197,8.9350367,,,,,,
2565061495,,Grenzwehr,,53.0682009,8.9389336,,,,,,
777285461,,Klinikum Bremen-Ost,,53.0667114,8.9429334,,,,,,
2277886222,,Schweizer Eck,,53.0651207,8.9499213,,,,,,
777285199,,Klinikum Bremen-Ost,,53.0663141,8.9438408,,,,,,
777285474,,Grenzwehr,,53.0682001,8.9392181,,,,,,
777285289,,Emmentaler Straße,,53.0695298,8.9338602,,,,,,
777285502,,Krefelder Straße,,53.0713553,8.9298233,,,,,,
2562313387,,Einkaufszentrum Blockdiek,,53.0730994,8.9243129,,,,,,
2265673978,,Bottroper Straße,,53.0721694,8.9207758,,,,,,
777285413,,Georg-Gries-Straße,,53.0715933,8.8908974,,,,,,
777285351,,Stellichter Straße,,53.0716672,8.8821795,,,,,,
777285478,,Wilseder-Berg-Straße,,53.0735578,8.8790009,,,,,,
777285388,,Müdener Straße,,53.0737483,8.8754591,,,,,,
769037353,,Julius-Brecht-Allee,,53.074271,8.8687869,,,,,,
777285277,,Steubenstraße,,53.0714641,8.8630764,,,,,,
1116969982,,Stresemannstraße,,53.0726207,8.8576989,,,,,,
798968421,,Stader Straße/Bismarckstraße,,53.0738586,8.8514149,,,,,,
29584920,,Friedrich-Karl-Straße,,53.0755459,8.8435412,,,,,,
777285165,,Klinikum Bremen-Mitte,,53.0769603,8.8367878,,,,,,
1900167144,,Dobbenweg,,53.0787329,8.8263029,,,,,,
798968511,,Rembertistraße,,53.0806952,8.8187923,,,,,,
30891842,,Hauptbahnhof,,53.0819392,8.8125766,,,,,,
2073742840,,Martinistraße,,53.0770008,8.8034125,,,,,,
768037547,,"Am Brill (Martinistraße), Bussteig D",,53.0780742,8.8015724,,,,,,
775573234,,Radio Bremen,,53.0812227,8.7964374,,,,,,
1993523367,,Doventor,,53.0836161,8.7984043,,,,,,
777285505,,Daniel-von-Büren-Straße,,53.0851108,8.8038478,,,,,,
1920279166,,Lohmannstraße,,53.0931694,8.8040315,,,,,,
29134214,,"Hemmstraße, Bussteig D",,53.0949882,8.8088966,,,,,,
777388463,,Utbremer Ring,,53.0980017,8.8135751,,,,,,
1921966956,,Stuttgarter Straße,,53.0970836,8.8167891,,,,,,
2077326590,,Weidedamm-Nord,,53.0998463,8.8204433,,,,,,
778150523,,Rudolf-Alexander-Schröder-Straße,,53.1008734,8.8175344,,,,,,
778150550,,Ricarda-Huch-Straße,,53.101807,8.8162436,,,,,,
778110502,,Eickedorfer Straße,,53.0925451,8.8108706,,,,,,
778110548,,Findorffallee,,53.0899638,8.8140962,,,,,,
357674146,,Bürgerpark,,53.0867746,8.8180199,,,,,,
317405955,,Pappelstraße,,53.0695782,8.7880793,,,,,,
778110545,,Delmestraße,,53.0680599,8.7907467,,,,,,
417976391,,Gastfeldstraße,,53.0666071,8.7932923,,,,,,
357674163,,Meyerstraße,,53.06447,8.7970707,,,,,,
778110522,,Gottfried-Menken-Straße,,53.0618542,8.8008106,,,,,,
845178554,,August-Hinrichs-Straße,,53.0601618,8.803229,,,,,,
463773384,,Willigstraße,,53.0589332,8.8089726,,,,,,
778110497,,Stenumer Straße,,53.0547385,8.8149651,,,,,,
778110564,,Huckelriede,,53.0518525,8.8199442,,,,,,
30401670,,Stenumer Straße,,53.0550147,8.8145589,,,,,,
778110532,,Willigstraße,,53.0590904,8.8087496,,,,,,
778110554,,August-Hinrichs-Straße,,53.0599943,8.8034663,,,,,,
778110530,,Gottfried-Menken-Straße,,53.0616243,8.8011458,,,,,,
778110493,,Meyerstraße,,53.0646952,8.7967093,,,,,,
417976393,,Gastfeldstraße,,53.0661785,8.7940786,,,,,,
357674156,,Pappelstraße,,53.0696214,8.7880011,,,,,,
244109185,,Bürgerpark,,53.0862997,8.8181737,,,,,,
778110528,,Findorffallee,,53.0907145,8.813269,,,,,,
778110514,,Eickedorfer Straße,,53.0932418,8.8100032,,,,,,
29077474,,Utbremer Ring,,53.0986073,8.8129043,,,,,,
778150499,,Innsbrucker Straße,,53.1013945,8.814644,,,,,,
1668126096,,Ricarda-Huch-Straße,,53.1013561,8.8159798,,,,,,
778237585,,Beim Bohnenhof,,53.0513022,8.9496287,,,,,,
778237579,,Heiligenbergstraße,,53.053621,8.9534425,,,,,,
778237580,,Egestorff-Stiftung,,53.0577124,8.9539573,,,,,,
4405698261,,Osterholzer Möhlendamm,,53.0578973,8.9508941,,,,,,
2566496978,,Am Hahnenkamp,,53.0619543,8.9510089,,,,,,
777285465,,Klinikum Bremen-Ost,,53.0656307,8.9444718,,,,,,
778282063,,Am Siek,,53.0629691,8.943589,,,,,,
2179288709,,Lachmundsdamm,,53.0584938,8.9397839,,,,,,
778237587,,Osterholzer Heerstraße,,53.0592958,8.930622,,,,,,
778923244,,Oewerweg,,53.0625197,8.9318091,,,,,,
778923274,,Poggenburg,,53.065446,8.9328867,,,,,,
778923246,,Am Hallacker,,53.0677801,8.9337463,,,,,,
768878183,,Osterholzer Landstraße,,53.0742075,8.9365497,,,,,,
778923281,,Schevemoorer Landstraße,,53.0769866,8.9398761,,,,,,
2003385709,,Simon-Hermann-Post-Weg,,53.0908053,8.9245348,,,,,,
2003385701,,Rockwinkeler Heerstraße,,53.0919661,8.9204114,,,,,,
778301165,,Modersohnweg,,53.0942717,8.9145077,,,,,,
20974626,,Beim Kleinen Tagwerk,,53.0966461,8.9094121,,,,,,
778301174,,Apfelallee,,53.0998257,8.9014964,,,,,,
778301170,,Schorf,,53.0984229,8.893101,,,,,,
778301188,,Wilhelm-Röntgen-Straße,,53.0998303,8.8855562,,,,,,
768090828,,Horner Mühle,,53.1014644,8.8796147,,,,,,
768090793,,Vorstraße,,53.101362,8.8741608,,,,,,
2003329317,,An den Wühren,,53.1034828,8.9022811,,,,,,
779060601,,Oberneulander Heerstraße,,53.1022014,8.9128693,,,,,,
779060600,,Kapitän-König-Weg,,53.1011958,8.9160567,,,,,,
779060599,,Im Holze,,53.0992571,8.921531,,,,,,
779060608,,Am Querkamp,,53.0957602,8.9295149,,,,,,
779060606,,Höpkens Ruh,,53.0932806,8.9329396,,,,,,
778923242,,Mühlenfeldstraße,,53.0904347,8.9357587,,,,,,
779060602,,Höpkens Ruh,,53.0931903,8.9330698,,,,,,
779060603,,Am Querkamp,,53.0953251,8.9301107,,,,,,
779060604,,Im Holze,,53.0990075,8.9222139,,,,,,
779060605,,Kapitän-König-Weg,,53.1010919,8.9163715,,,,,,
779060607,,Oberneulander Heerstraße,,53.1022956,8.912539,,,,,,
2003329319,,An den Wühren,,53.1037374,8.9025362,,,,,,
3523341344,,Hauptbahnhof,,53.5353385,8.5976743,,,,,,
3644972419,,Weserstraße,,53.5114472,8.5961103,,,,,,
1050288952,,Bahnhofstraße,,53.5063062,8.6106817,,,,,,
992819309,,Wulsdorf Mitte,,53.5060345,8.5983492,,,,,,
3644972420,,Weserstraße,,53.5114588,8.5961705,,,,,,
993929478,,Haberstraße,,53.5196939,8.6050896,,,,,,
999589622,,Voßstraße,,53.5288493,8.6001878,,,,,,
3249157313,,Elbinger Platz,,53.5348213,8.5892748,,,,,,
1680564163,,Weserfähre,,53.5382117,8.5843763,,,,,,
3642453568,,Dt. Schifffahrtsmuseum,,53.5405555,8.5793735,,,,,,
993625204,,Bürgermeister-Smidt-Straße,,53.5462105,8.5765716,,,,,,
993674505,,Freigebiet/Arbeitsagentur,,53.5497512,8.5799285,,,,,,
3642453570,,Ernst-Reuter-Platz,,53.5567218,8.5846642,,,,,,
997645175,,Stadtverwaltung,,53.557511,8.5930636,,,,,,
993646468,,Eisenbahnstraße,,53.5675142,8.5965021,,,,,,
989081354,,Parkstraße,,53.5891433,8.597287,,,,,,
989081344,,Hans-Böckler-Straße/Bad 1,,53.5877762,8.6131615,,,,,,
985363918,,Louise-Schröder-Straße,,53.5886957,8.616117,,,,,,
985363902,,Heinrich-Plett-Straße,,53.594151,8.6218611,,,,,,
993949002,,Auerstraße,,53.5164366,8.6056166,,,,,,
993948720,,Braunstraße,,53.5182837,8.6084419,,,,,,
993912420,,Boschstraße,,53.5230284,8.605374,,,,,,
993837290,,Altonaer Straße,,53.523311,8.597585,,,,,,
993815457,,Humboldtschule,,53.5279702,8.5962953,,,,,,
993811910,,An der Mühle,,53.5311516,8.5947425,,,,,,
1015066186,,Hauptbahnhof,,53.5351179,8.5977382,,,,,,
510420580,,Wilhelm-Raabe-Schule,,53.5393915,8.5925477,,,,,,
1680804438,,Hochschule BHV / Stadttheater,,53.5410127,8.5829369,,,,,,
993620019,,Große Kirche,,53.5436475,8.5793463,,,,,,
423296397,,Lloydstraße / VHS,,53.5473858,8.5754336,,,,,,
3661561336,,Am Leher Tor,,53.5516014,8.5811081,,,,,,
993674845,,Kistnerstraße,,53.5542548,8.5829538,,,,,,
993640291,,Rickmersstraße,,53.5625231,8.5862212,,,,,,
993639079,,Lange Straße,,53.5638196,8.5869194,,,,,,
993637076,,Alte Kirche,,53.5668902,8.5923566,,,,,,
993628813,,Flötenkiel,,53.5710387,8.5954048,,,,,,
993612442,,Gesundheitsamt,,53.5754871,8.5920291,,,,,,
993605909,,Twischlehe,,53.5795929,8.5918235,,,,,,
993602621,,Jägerhof,,53.582426,8.591021,,,,,,
993600984,,Parktor,,53.586198,8.5905136,,,,,,
989081348,,Mecklenburger Weg,,53.5913022,8.601081,,,,,,
989081352,,Kurt-Schumacher-Straße,,53.589933,8.6096524,,,,,,
985363931,,Hermann-Ehlers-Straße,,53.5903156,8.6207732,,,,,,
985363930,,Jakob-Kaiser-Straße,,53.5925168,8.6232024,,,,,,
1000488287,,Carsten-Lücken-Straße,,53.5199969,8.6378633,,,,,,
3653899005,,Vorarlberger Straße,,53.5213033,8.6355276,,,,,,
999744560,,Bregstraße,,53.5194747,8.6313203,,,,,,
999706484,,Auf der Heide,,53.5167563,8.6321542,,,,,,
999683088,,Karlsweg,,53.5186947,8.6224217,,,,,,
1829904844,,Greifswalder Straße,,53.5208496,8.6150513,,,,,,
999607611,,Auf der Bult,,53.5223332,8.6112773,,,,,,
999608811,,Boschstraße,,53.5231264,8.6064011,,,,,,
999608792,,Am Oberhamm,,53.5245144,8.6014504,,,,,,
454156541,,Friedrich-Ebert-Straße,,53.5322747,8.5985574,,,,,,
1713189831,,Elbestraße,,53.5406231,8.590795,,,,,,
997779150,,Marineschule,,53.5441147,8.5916595,,,,,,
997693983,,Wiesenstraße,,53.5478666,8.5942663,,,,,,
997670144,,Stadthalle,,53.5536202,8.5934715,,,,,,
997637435,,Poststraße,,53.5637182,8.5948331,,,,,,
993658015,,Flötenkiel,,53.5724551,8.5964958,,,,,,
993660186,,Anton-Biehl-Straße,,53.575524,8.5972568,,,,,,
993664639,,Tötje,,53.5804645,8.5979243,,,,,,
993664640,,Claus-Groth-Straße,,53.5833046,8.5979447,,,,,,
1659476890,,Lotjeweg,,53.5861136,8.6046975,,,,,,
3644924448,,Hornbach,,53.4872389,8.5977309,,,,,,
248413008,,Am Lunedeich,,53.489241,8.5956011,,,,,,
389039157,,Schiffshören,,53.4916656,8.5959247,,,,,,
993016169,,Bohnenbreden,,53.4948661,8.5991757,,,,,,
3644339620,,Deichhämme,,53.4968972,8.6011552,,,,,,
993599652,,Am Jedutenberg,,53.501111,8.6003638,,,,,,
993601516,,Bielefelder Straße,,53.5099176,8.5960526,,,,,,
992819314,,Friedhof Wulsdorf,,53.513835,8.5937609,,,,,,
993606113,,Heidacker,,53.5167703,8.5920422,,,,,,
993607249,,Hoebelstraße,,53.5192811,8.5903515,,,,,,
987950073,,Schaufenster Fischereihafen,,53.5218459,8.5897701,,,,,,
987961885,,Georg-Seebeck-Straße,,53.5277145,8.589788,,,,,,
993612317,,Konrad-Adenauer-Platz,,53.5321864,8.591296,,,,,,
3523341342,,Hauptbahnhof,,53.5348288,8.5978208,,,,,,
1680914752,,Columbusstraße / Weserfähre,,53.5373209,8.5864046,,,,,,
1680914764,,Historisches Museum,,53.5388543,8.5870196,,,,,,
993626101,,Martin-Donandt-Platz,,53.5497359,8.5731315,,,,,,
1680700233,,Schleusenstraße,,53.5525542,8.5715235,,,,,,
993627644,,Waldemar-Becké-Platz,,53.5553143,8.5689124,,,,,,
993631190,,Rotersand,,53.5604023,8.5679699,,,,,,
1687324513,,Pestalozzistraße,,53.5605042,8.5737784,,,,,,
993637091,,Goethestraße,,53.5607064,8.57958,,,,,,
993668940,,Königsheide,,53.5937676,8.598019,,,,,,
1656970153,,Seepark-Klinik Debstedt,,53.6169631,8.6287353,,,,,,
992829489,,Carsten-Börger-Straße,,53.4919674,8.5990536,,,,,,
3650575699,,Parkstraße,,53.5890385,8.597311,,,,,,
1014279947,,Poggenbruchstraße,,53.5031592,8.6085262,,,,,,
1014281870,,Vieländer Weg,,53.5042309,8.6034596,,,,,,
1593916707,,Schiffdorf Mitte,,53.5315621,8.6546174,,,,,,
429171079,,Bohlenstraße,,53.5309831,8.6441273,,,,,,
1014873817,,Stadtgrenze Schiffdorf,,53.5308955,8.6395825,,,,,,
1950714235,,Klinikum Bremerhaven,,53.5376313,8.6391191,,,,,,
428909778,,Postbrookstraße,,53.5328512,8.6331331,,,,,,
1014859066,,Veerenholzstraße,,53.5304958,8.6306505,,,,,,
1014848089,,Schiffdorferdamm,,53.5294793,8.6257268,,,,,,
1014846553,,Ludwig-Börne-Straße,,53.5286612,8.6197506,,,,,,
1014845277,,Schulzentrum C. v. Ossietzky,,53.5294322,8.6125523,,,,,,
1014841282,,Klinik Bürgerpark,,53.5311243,8.602743,,,,,,
1014804011,,Eisenbahnstraße,,53.5667627,8.5968896,,,,,,
1014802192,,Bahnhof Lehe,,53.5665993,8.5991848,,,,,,
1014798906,,Königshütter Straße,,53.5703567,8.6030732,,,,,,
1014798903,,Striegauer Straße,,53.5707053,8.6089514,,,,,,
1014792256,,Friedhof Spadener Höhe,,53.5706822,8.6131013,,,,,,
1593914920,,Spadener Holz,,53.5718764,8.6266387,,,,,,
1014754379,,Weißdornweg,,53.5792622,8.629057,,,,,,
1015029723,,Königshütter Straße,,53.5704991,8.6019121,,,,,,
1010546039,,Kreuzburger Straße,,53.5738931,8.6037126,,,,,,
1003814041,,Schierholzweg,,53.5777333,8.604333,,,,,,
389381991,,Bredenweg,,53.5809555,8.60459,,,,,,
1003725626,,Eichenweg,,53.5845935,8.6039035,,,,,,
3642314255,,Gesundheitsamt,,53.5755989,8.5913008,,,,,,
402420451,,Eckernfeldstraße,,53.5760356,8.5884321,,,,,,
3642086311,,Gaußschule / Bad 3,,53.5784073,8.5886398,,,,,,
1001066867,,Jägerhof,,53.5824131,8.5899176,,,,,,
3653899007,,Wurthacker,,53.584666,8.5838267,,,,,,
3653898985,,Marschenhaus,,53.5863143,8.5779401,,,,,,
3653899003,,Tierheim,,53.5868865,8.5731682,,,,,,
3653898982,,Grauwallring-West,,53.5899216,8.5579116,,,,,,
3547377605,,Weddewarden,,53.6009831,8.5353538,,,,,,
1226983474,,Anne-Frank-Schule,,53.6030474,8.5354301,,,,,,
3547377601,,Stadtgrenze Imsum,,53.606465,8.5351249,,,,,,
988374978,,Konrad-Adenauer-Platz,,53.5322512,8.5894774,,,,,,
3654083667,,Blumenauer Weg,,53.5955596,8.6046739,,,,,,
3654083669,,Buchenweg,,53.6015713,8.6236756,,,,,,
3654083671,,Fehrmoorweg,,53.6006639,8.6324091,,,,,,
3523341341,,Hauptbahnhof,,53.5344835,8.5979161,,,,,,
2874673974,,Fähranleger,,53.5362374,8.5818702,,,,,,
976677341,,Doppelschleuse / AWI,,53.5336319,8.5793793,,,,,,
976562259,,Fischereihafenschleuse,,53.5296209,8.5750048,,,,,,
976677343,,Am Düker,,53.52702,8.5740047,,,,,,
3643981599,,Störstraße,,53.5237686,8.5730209,,,,,,
976553684,,Am Seedeich,,53.5216302,8.5725102,,,,,,
3643981598,,Störstraße,,53.5233942,8.5729162,,,,,,
976677329,,Fischereihafenschleuse,,53.5295642,8.5749845,,,,,,
976677334,,Fähranleger,,53.5366758,8.5823341,,,,,,
1003781598,,Fladengrund,,53.4965262,8.5925257,,,,,,
987825460,,Neufundlandstraße,,53.5004937,8.5912802,,,,,,
3644924461,,Spitzbergenstraße,,53.5037597,8.5902402,,,,,,
987845388,,Lofotenstraße,,53.5077808,8.5889572,,,,,,
841989598,,Frosta,,53.510425,8.5881066,,,,,,
27200989,,Halle XVII,,53.5130741,8.587135,,,,,,
987853286,,Am Baggerloch,,53.5151673,8.5853403,,,,,,
987915998,,Heringstraße,,53.5170051,8.5833157,,,,,,
987926318,,Lengstraße,,53.5203128,8.5796993,,,,,,
3644924431,,Am Fischbahnhof,,53.5218548,8.5815929,,,,,,
27200983,,Am Schaufenster/Gera,,53.521017,8.5851594,,,,,,
2574919450,,Unnamed train stop.,,53.5350113,8.5993139,,,,,,
2574919474,,Unnamed train stop.,,53.566754,8.6006485,,,,,,
3765510342,,Zur Windhorst,,53.0337627,8.736185,,,,,,
306041645,,Varreler Landstraße,,53.0363957,8.7271814,,,,,,
306041793,,Friedhof Huchting,,53.0390636,8.7292304,,,,,,
306042533,,Rotterdamer Straße,,53.0407531,8.7310135,,,,,,
306043564,,Hohenhorster Weg,,53.0445092,8.7360525,,,,,,
306043896,,Willakedamm,,53.0472023,8.7385086,,,,,,
1270700546,,Roland Center/Huchting,,53.0484753,8.7421356,,,,,,
775576503,,Unnamed train stop.,,53.0833792,8.8138574,,,,,,
3185144505,,Hochschulring,,53.1066277,8.8624709,,,,,,
1749024936,,Kopernikusstraße,,53.10977,8.8857998,,,,,,
4540365378,,Bremen Neustadt,,53.0764313,8.78614,,,,,,
287052921,,Nedderland,,53.0922493,8.90974,,,,,,
775999372,,Achterdiek,,53.089254,8.901176,,,,,,
776070254,,Fultonstraße,,53.1144356,8.8961372,,,,,,
2003720847,,Bürgermeister-Kaisen-Allee,,53.1210164,8.8998038,,,,,,
2003720842,,Louise-Böhm-Weg,,53.1190849,8.9086709,,,,,,
2003720837,,Albert-Bischof-Straße,,53.117882,8.9060658,,,,,,
2003467572,,Borgfeld-Ost,,53.1196341,8.9128883,,,,,,
460004358,,Gravestraße,,53.0907112,8.9115212,,,,,,
775999336,,Hermann-Frese-Straße,,53.0892056,8.9041328,,,,,,
775999387,,Deliusweg,,53.0891787,8.8914785,,,,,,
775999364,,Rhododendronpark,,53.0904471,8.88373,,,,,,
26701284,,Bürgermeister-Spitta-Allee,,53.0913521,8.8729209,,,,,,
776070230,,Haferwende,,53.1122302,8.8786877,,,,,,
776070298,,Oberste Kämpe,,53.109882,8.8818835,,,,,,
768827678,,Kopernikusstraße,,53.1090932,8.8883057,,,,,,
776070362,,Ohmstraße,,53.1091724,8.8911519,,,,,,
776070278,,Ostwaldstraße,,53.110915,8.8928308,,,,,,
2568927934,,Am Lehester Deich,,53.1184067,8.8970405,,,,,,
2156162420,,Ritterhuder Heerstraße,,53.1340942,8.7350724,,,,,,
2156161407,,Diako,,53.1266908,8.746701,,,,,,
610596965,,Gröpelingen,,53.1202367,8.7525328,,,,,,
610570301,,Stader Landstraße,,53.1674712,8.7021171,,,,,,
777388472,,Utbremer Ring,,53.0985338,8.8117168,,,,,,
778110526,,Fürther Straße,,53.1000315,8.8069429,,,,,,
778110538,,Dithmarscher Freiheit,,53.102841,8.7986015,,,,,,
4444123620,,Emder Straße,,53.1018337,8.7737751,,,,,,
2000782282,,Grasberger Straße,,53.1087207,8.7638111,,,,,,
2000782403,,Use Akschen,,53.1126892,8.7525479,,,,,,
610596967,,Gröpelingen,,53.1204788,8.7520621,,,,,,
2156161470,,Karl-Bröger-Straße,,53.1251611,8.7484659,,,,,,
2156161349,,Am Fuchsberg,,53.1296412,8.7433127,,,,,,
2156161415,,Dohlenstraße,,53.1355808,8.7301122,,,,,,
2156162500,,Von-Ossietzky-Straße,,53.1384113,8.7227433,,,,,,
610554127,,Am Geestkamp,,53.1478577,8.711224,,,,,,
610554135,,An Smidts Park,,53.1524244,8.7074557,,,,,,
610554134,,Burg,,53.1549741,8.7046364,,,,,,
2000766690,,Beckers Barg,,53.1679025,8.7096543,,,,,,
2156161392,,Burgdammer Ring,,53.1693681,8.7124401,,,,,,
4425955573,,Helsingborger Platz,,53.1786101,8.7243248,,,,,,
2156161448,,Helsingborger Straße,,53.1786499,8.7196411,,,,,,
268125210,,Burgdammer Postweg,,53.1754308,8.7060652,,,,,,
2000766783,,Am Heidbergstift,,53.1740325,8.6967275,,,,,,
2156162427,,Rotdornallee,,53.1735108,8.6889848,,,,,,
2156161372,,Bahnhof Lesum,,53.1712142,8.6836847,,,,,,
2156161455,,Holthorster Weg,,53.173622,8.6750757,,,,,,
2156161340,,Am Bahnhof St. Magnus,,53.1748441,8.6689516,,,,,,
2156162462,,Tannenhof,,53.1749801,8.6599107,,,,,,
2156161377,,Bf Schönebeck,,53.1738251,8.6488398,,,,,,
2156161369,,Auf dem Krümpel,,53.1731644,8.6403502,,,,,,
250966975,,Friedrichsdorfer Straße,,53.170685,8.6353064,,,,,,
2295106522,,Fährgrund,,53.1752337,8.6125692,,,,,,
2295106530,,Vereinsstraße,,53.1764952,8.6058088,,,,,,
2295106532,,Bremer Vulkan,,53.1773162,8.6021613,,,,,,
4741390050,,Margaretenallee,,53.1787032,8.5959172,,,,,,
2295106538,,Wätjens Park,,53.1799658,8.5891205,,,,,,
5057205506,,Bf Blumenthal (Provisorium),,53.1813158,8.5792594,,,,,,
4434410505,,Hakenwehrstraße,,53.1897569,8.5712942,,,,,,
4434410503,,Besanstraße,,53.1898207,8.5662048,,,,,,
4434410504,,Eggestedter Straße,,53.1918741,8.5628022,,,,,,
2295106454,,Bf Kreinsloger,,53.1897585,8.5578717,,,,,,
2295108679,,Rönnebecker Straße,,53.1861957,8.5549939,,,,,,
595351300,,Dillener Park,,53.1885786,8.5474858,,,,,,
2009210909,,Buschdeel,,53.1898967,8.5434305,,,,,,
2295106467,,Hanfstraße,,53.1916179,8.5379163,,,,,,
595351306,,An der Amtsweide,,53.192959,8.5338418,,,,,,
2295106451,,Betonstraße,,53.2036307,8.5240552,,,,,,
1140046133,,Bf Farge,,53.2054601,8.5190712,,,,,,
2295108703,,Wilhelm-Brandhorst-Straße,,53.208093,8.5140719,,,,,,
2295106462,,De Kreienbarg,,53.2114479,8.5123545,,,,,,
2295106472,,Hohenesch,,53.2136001,8.5109215,,,,,,
2295108678,,Rekumer Siel,,53.2184647,8.5093484,,,,,,
2295108692,,Vor den Wischen,,53.2229278,8.5088318,,,,,,
253003867,,Albert-Bischof-Straße,,53.1176805,8.906267,,,,,,
768827731,,Kopernikusstraße,,53.1090222,8.8882679,,,,,,
776070419,,Fultonstraße,,53.1143928,8.8960675,,,,,,
776070302,,Ostwaldstraße,,53.1111827,8.8930861,,,,,,
309467305,,Ohmstraße,,53.1091587,8.8911387,,,,,,
2000293734,,Oberste Kämpe,,53.1097935,8.8821168,,,,,,
776070263,,Haferwende,,53.1116745,8.8784723,,,,,,
775999393,,Bürgermeister-Spitta-Allee,,53.0913893,8.8725737,,,,,,
775999339,,Rhododendronpark,,53.0904384,8.8832928,,,,,,
775999356,,Deliusweg,,53.0891933,8.8919968,,,,,,
775999366,,Im Achterkamp,,53.0894884,8.9013605,,,,,,
775999392,,Mackensenweg,,53.0905845,8.9055734,,,,,,
2568927935,,Am Lehester Deich,,53.1188402,8.8974172,,,,,,
1920412342,,"Hemmstraße, Bussteig B",,53.0950045,8.8078179,,,,,,
1996928967,,Bremervörder Straße,,53.0977535,8.7811585,,,,,,
2005090017,,Karl-Peters-Straße,,53.0953094,8.7822781,,,,,,
2005090010,,St.-Magnus-Straße,,53.0925096,8.7845837,,,,,,
2562313297,,Johann-Bornemacher-Straße,,53.0905272,8.7868204,,,,,,
786850979,,Hansestraße,,53.0917647,8.7915758,,,,,,
784048748,,Landshuter Straße,,53.0945495,8.8035926,,,,,,
786790188,,Krönkeskamp,,53.1045007,8.816742,,,,,,
2005090082,,Umspannwerk,,53.1074858,8.8175404,,,,,,
786790612,,Wetterungsweg,,53.1120261,8.8206681,,,,,,
786790758,,Campingplatz,,53.1150672,8.8337221,,,,,,
786790913,,Stadtwaldsee,,53.114918,8.8382195,,,,,,
786791198,,Kuhgrabenweg,,53.1137423,8.8443823,,,,,,
786791459,,Wilhelm-Herbst-Straße,,53.1121754,8.8495949,,,,,,
786791846,,Celsiusstraße,,53.1092068,8.8475671,,,,,,
2081761444,,GVZ/Zentralbereich,,53.0854364,8.717659,,,,,,
2081761394,,GVZ/Verkehrsgew. Ost,,53.0835394,8.7236945,,,,,,
2077449410,,Georg-Henschel-Straße,,53.0879448,8.7363881,,,,,,
2077449384,,Ahrensstraße,,53.0863113,8.7472469,,,,,,
2077449202,,Reedeich-Nord,,53.0814272,8.7553655,,,,,,
264767526,,Visbeker Straße,,53.0757365,8.7616938,,,,,,
2077448576,,Warturmer Heerstraße,,53.0724893,8.7698061,,,,,,
2081761389,,Senator-Paulmann-Straße,,53.0701209,8.7760322,,,,,,
29857233,,Pappelstraße,,53.0696544,8.7870887,,,,,,
30891921,,Hauptbahnhof,,53.081824,8.8141087,,,,,,
1962458875,,Pappelstraße,,53.0695414,8.7869058,,,,,,
32343053,,Senator-Paulmann-Straße,,53.0701739,8.7758947,,,,,,
2077448578,,Warturmer Heerstraße,,53.0726406,8.7694272,,,,,,
2077448656,,Visbeker Straße,,53.07584,8.7615085,,,,,,
2077449232,,Reedeich-Nord,,53.0817093,8.755377,,,,,,
2077449379,,Ahrensstraße,,53.0857841,8.7479028,,,,,,
2077449427,,Neustädter Hafen,,53.0886918,8.744295,,,,,,
2077449407,,Georg-Henschel-Straße,,53.0878734,8.7360444,,,,,,
2081761599,,Franz-Stickan-Straße,,53.0903196,8.7247207,,,,,,
2081761598,,Mühlenhauser Fleet,,53.0901965,8.7145267,,,,,,
2081761606,,Senator-Mester-Straße,,53.094561,8.711004,,,,,,
2081761608,,Senator-Blase-Straße,,53.0956869,8.7164044,,,,,,
252387454,,Erich-Kühlmann-Straße,,53.0941186,8.6996397,,,,,,
2081761600,,Albert-Bote-Straße,,53.0903567,8.7045697,,,,,,
2081761571,,Senator-Harmssen-Straße,,53.0875807,8.7120657,,,,,,
2094252182,,Stedinger Brücke,,53.0944651,8.6660201,,,,,,
2036214573,,Luley,,53.0901694,8.6716353,,,,,,
2094252186,,Stellfeldsweg,,53.0862994,8.6908405,,,,,,
2094252190,,Strom/Schule,,53.0833953,8.7012664,,,,,,
2094251128,,Auf der Sandhöhe,,53.0801188,8.7098923,,,,,,
2094251135,,Köhler Brücke,,53.0767345,8.7229026,,,,,,
2094252192,,Stromer Berg,,53.0795714,8.7364696,,,,,,
2094251131,,Güterbahnhof Grolland,,53.0795272,8.7418322,,,,,,
252391287,,Neuer Schutzdeich,,53.0859183,8.7527629,,,,,,
2077449381,,Neuer Schutzdeich,,53.0858564,8.7527359,,,,,,
2094252194,,Stromer Berg,,53.0796157,8.7379638,,,,,,
2094251134,,Köhler Brücke,,53.0767236,8.7232881,,,,,,
2094251127,,Auf der Sandhöhe,,53.0800795,8.7100245,,,,,,
2094252189,,Strom/Schule,,53.0832099,8.7017957,,,,,,
2094252185,,Stellfeldsweg,,53.086212,8.6911636,,,,,,
2094251138,,Luley,,53.0887384,8.6742387,,,,,,
2095188305,,Klärwerk,,53.1099619,8.7165785,,,,,,
2095188327,,Seehausen/Schule,,53.1107839,8.7100208,,,,,,
2095188310,,Ortsamt Seehausen,,53.1157067,8.7044132,,,,,,
1273492785,,Kriegerdenkmal,,53.1167343,8.7004098,,,,,,
537132058,,Hasenbüren/Hagens,,53.1165361,8.697178,,,,,,
2095188288,,Am Glockenstein,,53.1167927,8.6909037,,,,,,
1273541534,,Stumper,,53.1164493,8.6832295,,,,,,
2095188579,,Wessels,,53.117559,8.6790828,,,,,,
2095188300,,Hasenbürener Deich,,53.1197196,8.6740397,,,,,,
2095188291,,Hasenbüren,,53.120701,8.6715367,,,,,,
2095188297,,Hasenbürener Deich,,53.1196354,8.6742582,,,,,,
2095188580,,Wessels,,53.1176323,8.6788966,,,,,,
2095188575,,Stumper,,53.1164964,8.6829828,,,,,,
2095188287,,Am Glockenstein,,53.1167916,8.6906667,,,,,,
2095188295,,Hasenbüren/Hagens,,53.1165773,8.6970057,,,,,,
2095188307,,Kriegerdenkmal,,53.1167396,8.7001431,,,,,,
2095188304,,Klärwerk,,53.1101044,8.7165466,,,,,,
2562927523,,Stedinger Brücke,,53.0946999,8.6668741,,,,,,
2098856599,,Stromer Berg,,53.0801398,8.7367748,,,,,,
2096088476,,Schöpfwerk,,53.1017658,8.6712233,,,,,,
2098856589,,Stedinger Brücke,,53.0945338,8.6668076,,,,,,
269844658,,Schöpfwerk,,53.1018787,8.671328,,,,,,
2242859044,,Bf Mahndorf,,53.0397138,8.9442417,,,,,,
2151211371,,Colshornstraße,,53.0381338,8.9244302,,,,,,
2151211441,,Heisiusstraße,,53.039034,8.9153492,,,,,,
2151211352,,Christernstraße,,53.0546137,8.8936247,,,,,,
2151211410,,Glockenstraße/Bf Hemelingen,,53.0560745,8.8880136,,,,,,
2151211465,,Hemelinger Bahnhofstraße,,53.0587782,8.8856406,,,,,,
159943225,,Bf Sebaldsbrück,,53.062193,8.8853619,,,,,,
4206709048,,Föhrenstraße,,53.0655217,8.8780121,,,,,,
2151212354,,Weserwehr,,53.0635622,8.8680488,,,,,,
1036529807,,Weserwehr,,53.0635517,8.8674554,,,,,,
818850197,,Föhrenstraße,,53.0654658,8.8780264,,,,,,
776070381,,Bf Sebaldsbrück,,53.0617292,8.8861875,,,,,,
2151211459,,Hemelinger Bahnhofstraße,,53.0582198,8.8854762,,,,,,
2151211542,,Osterhop,,53.0529041,8.8991048,,,,,,
2151211314,,Belmerstraße,,53.0509531,8.8948264,,,,,,
2151212296,,Schlengstraße,,53.0496232,8.8922893,,,,,,
2151211523,,Marschstraße,,53.0476157,8.8924891,,,,,,
2151211333,,Brünsweg,,53.0441279,8.8977132,,,,,,
2151212333,,Stackkamp,,53.0411305,8.9030727,,,,,,
2151212351,,Süntelstraße,,53.0398538,8.9083941,,,,,,
2151211433,,Heisiusstraße,,53.0390015,8.9171676,,,,,,
2151211386,,Colshornstraße,,53.0383437,8.9255056,,,,,,
2151211474,,Hermann-Osterloh-Straße,,53.0387803,8.9320376,,,,,,
779095570,,Kluvenhagener Straße,,53.0382888,8.939918,,,,,,
2151212322,,Sollingstraße,,53.0421906,8.9124637,,,,,,
2151211532,,Nauheimer Straße,,53.0448087,8.9157933,,,,,,
2151212290,,Ruppertshainer Straße,,53.0442526,8.9229867,,,,,,
2151211389,,Eppenhainer Straße,,53.0411209,8.9317998,,,,,,
2151211497,,Hermann-Osterloh-Straße,,53.0395304,8.9323075,,,,,,
2151211351,,Christernstraße,,53.0541202,8.895517,,,,,,
31210107,,Rönnebecker Straße,,53.1861912,8.5562804,,,,,,
2295106455,,Bf Kreinsloger,,53.1901879,8.5587082,,,,,,
610645655,,Eggestedter Straße,,53.1915433,8.5633344,,,,,,
610645650,,Besanstraße,,53.1890351,8.5674477,,,,,,
2399955150,,Hakenwehrstraße,,53.1898013,8.5714557,,,,,,
2295106534,,Margaretenallee,,53.1788735,8.5951502,,,,,,
2295106533,,Bremer Vulkan,,53.1775573,8.6010806,,,,,,
2295106529,,Vereinsstraße,,53.1762728,8.6068041,,,,,,
2295106526,,Fährgrund,,53.1754116,8.6129357,,,,,,
2156162548,,Zum Kränholm,,53.1725296,8.6797031,,,,,,
2156161389,,Burgdammer Postweg,,53.1757714,8.7070616,,,,,,
2156161445,,Helsingborger Straße,,53.1785683,8.7187477,,,,,,
2156161440,,Helsingborger Platz,,53.1787227,8.7239786,,,,,,
2156161395,,Burgdammer Ring,,53.1698859,8.7127775,,,,,,
2000766688,,Beckers Barg,,53.1676178,8.7087119,,,,,,
2000782401,,Use Akschen,,53.1115676,8.7531471,,,,,,
2000782280,,Grasberger Straße,,53.1086371,8.763524,,,,,,
4444123621,,Emder Straße,,53.1018663,8.7732688,,,,,,
2156161425,,Fürther Straße,,53.0995026,8.8083608,,,,,,
175673397,,Hexenstieg,,53.0377597,8.9451119,,,,,,
779095555,,Bollener Landstraße,,53.0344426,8.9527484,,,,,,
2151211506,,Malthusstraße,,53.0387194,8.9595747,,,,,,
779095595,,Holzweide,,53.0422374,8.9591765,,,,,,
1676641464,,Weserpark-Süd,,53.0461551,8.9572489,,,,,,
2435198443,,Weserpark-Süd,,53.0464297,8.9579122,,,,,,
779095603,,Holzweide,,53.0422997,8.9591651,,,,,,
779095565,,Panrepel Süd,,53.0423332,8.9611188,,,,,,
2156161502,,Panrepel Nord,,53.0458366,8.9656913,,,,,,
779095609,,Von-Thünen-Str.-Nord,,53.046257,8.9698801,,,,,,
779095625,,Ricardostraße,,53.0431523,8.9700333,,,,,,
175676074,,Oskar-Schulze-Straße,,53.0409917,8.9753412,,,,,,
2156162482,,Theodor-Barth-Straße,,53.0372667,8.9712169,,,,,,
779095578,,Von-Thünen-Str.-Süd,,53.039805,8.9653754,,,,,,
2156161479,,Malthusstraße,,53.0392566,8.9605934,,,,,,
779095574,,Bollener Landstraße,,53.0345462,8.9524252,,,,,,
2151211309,,Hexenstieg,,53.0379282,8.9443307,,,,,,
817602949,,Domsheide,,53.0746554,8.8091568,,,,,,
2101921560,,Sebaldsbrück,,53.0593598,8.899846,,,,,,
776070412,,Rennplatz,,53.071557,8.8870114,,,,,,
817602966,,Domsheide,,53.0748523,8.8089128,,,,,,
2157359955,,Bf Oslebshausen,,53.1350271,8.740089,,,,,,
2157911427,,Von-Ossietzky-Straße,,53.1374009,8.7220304,,,,,,
2157911337,,Riedemannstraße,,53.1353542,8.7144952,,,,,,
206360551,,Gottlieb-Daimler-Straße,,53.1398318,8.7012819,,,,,,
2157911400,,Stahlwerk Tor 2,,53.142448,8.6931533,,,,,,
2157910140,,Gottlieb-Daimler-Straße,,53.1403024,8.7020334,,,,,,
2157911446,,Wehrkamp,,53.1344957,8.708868,,,,,,
2157911404,,Stahlwerk Tor 3,,53.1305248,8.706196,,,,,,
2157910147,,Hüttenstraße Süd,,53.1264681,8.7139733,,,,,,
2157911378,,Riespot,,53.1291891,8.71107,,,,,,
2157911455,,Wehrkamp,,53.1348794,8.7093127,,,,,,
2157911420,,Stahlwerk Tor 3,,53.1308715,8.7065395,,,,,,
2157911351,,Riespot,,53.1290249,8.7118643,,,,,,
30993096,,Riedemannstraße,,53.1342308,8.7168874,,,,,,
610554126,,Dreyer & Hillmann,,53.131363,8.7225143,,,,,,
610554112,,Oslebshauser Landstraße,,53.1285472,8.7298204,,,,,,
610554117,,Togostraße,,53.124524,8.7408314,,,,,,
610554123,,Dreyer & Hillmann,,53.1319515,8.7216192,,,,,,
610554111,,Oslebshauser Landstraße,,53.1289025,8.728846,,,,,,
610554116,,Togostraße,,53.1250423,8.739926,,,,,,
610554130,,Auf den Delben,,53.1418248,8.7137956,,,,,,
611887716,,Stahlwerk Tor 1,,53.1383288,8.7142207,,,,,,
2157911334,,Riedemannstraße,,53.1351997,8.715141,,,,,,
2562918179,,Schwarzer Weg,,53.125905,8.7575165,,,,,,
2562918183,,Wasserhorster Straße,,53.1247321,8.7606496,,,,,,
2562918172,,Halmerweg,,53.1233473,8.7629894,,,,,,
2157910129,,Bromberger Straße,,53.1211404,8.7615324,,,,,,
2157910169,,Kalischer Straße,,53.1184034,8.7655862,,,,,,
2562918166,,Dirschauer Straße,,53.1168355,8.7682669,,,,,,
2157910154,,In den Barken,,53.1138344,8.7703306,,,,,,
4435051478,,Moorstraße,,53.1131918,8.7646232,,,,,,
769037352,,Berliner Freiheit,,53.0793021,8.8935953,,,,,,
769037371,,Carl-Goerdeler-Straße,,53.0792274,8.8970289,,,,,,
2268946946,,Witzlebenstraße,,53.0769508,8.9014851,,,,,,
29193668,,Hannoversche Straße,,53.0561371,8.8849462,,,,,,
2268946266,,Hermann-Funk-Straße,,53.056883,8.8806079,,,,,,
2268946253,,Allerkai,,53.0570099,8.8775328,,,,,,
2268946943,,Werrahafen,,53.0516111,8.8830478,,,,,,
2268946256,,Arberger Hafendamm,,53.0478546,8.8837335,,,,,,
2268946271,,Kleine Marschstraße,,53.0410337,8.884064,,,,,,
2111683925,,Emmastraße/Bürgerpark,,53.0942352,8.8331227,,,,,,
2111683967,,Busestraße/Bürgerpark,,53.096976,8.8351144,,,,,,
2268946877,,Parkallee,,53.0988682,8.83646,,,,,,
2111683944,,Emmastraße/Bürgerpark,,53.0949164,8.8338193,,,,,,
2111683997,,Busestraße/Bürgerpark,,53.0974219,8.835627,,,,,,
2268946728,,Osterholzer Heerstraße,,53.058974,8.9311518,,,,,,
4410222627,,Ludwig-von-Kapff-Straße,,53.0321993,8.8854834,,,,,,
4410240167,,Europaallee,,53.034089,8.8911148,,,,,,
4410240165,,Bordeaux-Straße,,53.0362931,8.9017838,,,,,,
1944614873,,La-Rochelle-Straße,,53.0331887,8.8999662,,,,,,
2277885426,,Europaallee,,53.0338347,8.8910211,,,,,,
734049623,,Ludwig-von-Kapff-Straße,,53.0321643,8.8850804,,,,,,
779095582,,Von-Thünen-Str.-Süd,,53.0396269,8.9658046,,,,,,
779095563,,Theodor-Barth-Straße,,53.0371466,8.9713739,,,,,,
779095599,,Oskar-Schulze-Straße,,53.0411704,8.974929,,,,,,
175675898,,Ricardostraße,,53.0433767,8.9700935,,,,,,
779095620,,Von-Thünen-Str.-Nord,,53.045894,8.9699166,,,,,,
2156161506,,Panrepel Nord,,53.0460248,8.9659288,,,,,,
2151211508,,Malthusstraße,,53.0394816,8.9596421,,,,,,
2284290161,,Amselweg,,53.108515,8.797126,,,,,,
2284290164,,Amselweg,,53.1085426,8.796981,,,,,,
4444123624,,Ermlandstraße,,53.1932814,8.5608793,,,,,,
5057205510,,Bf Blumenthal (Provisorium),,53.181426,8.579562,,,,,,
610645662,,Ermlandstraße,,53.1938098,8.5601563,,,,,,
610645745,,Fährer Kämpe,,53.18433,8.6123372,,,,,,
610645742,,Blumenhorster Straße,,53.1846292,8.603894,,,,,,
611829115,,Löhstraße,,53.1848649,8.5969416,,,,,,
610645741,,Klinikum Bremen-Nord,,53.1845168,8.5939297,,,,,,
595653008,,Blumenthal/Markt,,53.1814488,8.5737172,,,,,,
595655715,,Zum Donaufleet,,53.1816665,8.5677691,,,,,,
595656455,,Fähre Blumenthal,,53.1832223,8.5623221,,,,,,
4405642225,,Fähre Farge,,53.199009,8.5274351,,,,,,
2268946260,,Neue Vahr Nord,,53.0861985,8.8962436,,,,,,
2566496981,,Crüsemannallee,,53.0911108,8.8349326,,,,,,
254360377,,Bulthauptstraße,,53.0882236,8.8327186,,,,,,
2576185059,,Brahmsstraße,,53.0857033,8.8305987,,,,,,
768090875,,Am Stern,,53.0844522,8.8253486,,,,,,
778110525,,Delmestraße,,53.0680866,8.7906995,,,,,,
767995022,,Arsterdamm,,53.0469585,8.8182123,,,,,,
767994999,,Krimpelweg,,53.0429156,8.8159355,,,,,,
2296513844,,Wolfskuhlenweg,,53.038822,8.8136327,,,,,,
802118305,,Soester Straße,,53.0338279,8.8104423,,,,,,
26736640,,Kattenescher Weg,,53.0306397,8.8120954,,,,,,
2296513841,,Morsumer Straße,,53.0277267,8.8191946,,,,,,
2566496977,,Alfred-Faust-Straße,,53.0299957,8.8232795,,,,,,
2298638071,,Kattenturm Mitte,,53.0342767,8.8275077,,,,,,
2566496985,,Gem.-Zentrum Obervieland,,53.0339253,8.8308447,,,,,,
767995026,,Brenningstraße,,53.0374393,8.8381156,,,,,,
2550224738,,Martin-Buber-Straße,,53.0352814,8.8417728,,,,,,
2296344164,,In der Laake,,53.0304737,8.8456104,,,,,,
317405947,,Arster Landstraße,,53.0278867,8.8497591,,,,,,
767994960,,Arster Kirche,,53.0308782,8.8506383,,,,,,
2294710819,,Hermann-Helms-Straße,,53.0335162,8.8511905,,,,,,
2294711406,,Senator-Theil-Straße,,53.0379795,8.8509655,,,,,,
2294713250,,Piependamm,,53.0418087,8.8505,,,,,,
2294792650,,Pfarrfeldsweg,,53.0453029,8.8513602,,,,,,
767994959,,Staustraße,,53.0466053,8.8593836,,,,,,
2296437837,,Friedrich-Engels-Straße,,53.0505429,8.8530885,,,,,,
2296437844,,Habenhauser Brückenstraße,,53.0504576,8.8470485,,,,,,
2296437832,,Fellendsweg,,53.0507547,8.8394848,,,,,,
25926307,,Julius-Bamberger-Straße,,53.0507595,8.834763,,,,,,
2295875610,,Friedhof Huckelriede,,53.0503782,8.8283335,,,,,,
2562313296,,Huckelriede,,53.052022,8.819368,,,,,,
2295875611,,Friedhof Huckelriede,,53.0503828,8.8289601,,,,,,
2296344169,,Julius-Bamberger-Straße,,53.0507775,8.8349365,,,,,,
2298521632,,Fellendsweg,,53.0508088,8.8389376,,,,,,
1270603686,,Habenhauser Brückenstraße,,53.0502512,8.8476704,,,,,,
2298216592,,Friedrich-Engels-Straße,,53.0505622,8.8537886,,,,,,
767995013,,Staustraße,,53.046495,8.8593769,,,,,,
2294792649,,Pfarrfeldsweg,,53.0450386,8.8506988,,,,,,
2294713249,,Piependamm,,53.0412246,8.8503941,,,,,,
2294711402,,Senator-Theil-Straße,,53.0374414,8.8515628,,,,,,
2294710817,,Hermann-Helms-Straße,,53.0332931,8.8511947,,,,,,
2296235858,,Arster Landstraße,,53.028242,8.8502538,,,,,,
2296344165,,In der Laake,,53.0305528,8.8454885,,,,,,
767994966,,Martin-Buber-Straße,,53.035677,8.8408578,,,,,,
3303504745,,Brenningstraße,,53.0373245,8.8367008,,,,,,
2296344160,,Gem.-Zentrum Obervieland,,53.0340262,8.8306646,,,,,,
2566496986,,Kattenturm Mitte,,53.0342759,8.8264003,,,,,,
1320689567,,Morsumer Straße,,53.0279553,8.8184474,,,,,,
477359087,,Kattenescher Weg,,53.0302902,8.8129121,,,,,,
802118353,,Soester Straße,,53.0342818,8.8108325,,,,,,
802118290,,Wolfskuhlenweg,,53.0401333,8.8144322,,,,,,
767994972,,Krimpelweg,,53.043636,8.8163206,,,,,,
817481597,,Am Stern,,53.0844549,8.8257142,,,,,,
2576185060,,Brahmsstraße,,53.0858477,8.8311696,,,,,,
254360378,,Bulthauptstraße,,53.0881639,8.8326757,,,,,,
2566496984,,Crüsemannallee,,53.0912421,8.8350335,,,,,,
1845937988,,Gustav-Radbruch-Straße,,53.0861011,8.8958683,,,,,,
775544343,,Bremen Hbf,,53.0834756,8.8139808,,,,,,
2156162458,,Stockholmer Straße,,53.1745627,8.7188197,,,,,,
4425857148,,Upsalastraße,,53.1771162,8.7169575,,,,,,
4425857147,,Upsalastraße,,53.1764632,8.717387,,,,,,
2156162455,,Stockholmer Straße,,53.1740387,8.7192438,,,,,,
610554109,,Stehnckenshoff,,53.1688229,8.6947038,,,,,,
4404432785,,Lesum / Kirche,,53.1696195,8.6887332,,,,,,
610554103,,Auf dem Pasch,,53.1679771,8.6861741,,,,,,
3305128805,,Knoops Park,,53.1656066,8.676521,,,,,,
610554099,,Am Kapellenberg,,53.1642594,8.6662037,,,,,,
610554096,,Richthofenstraße,,53.1639246,8.6625492,,,,,,
4404297341,,Finkenschlag,,53.1635938,8.6569596,,,,,,
610554088,,Taunusstraße,,53.1643015,8.65141,,,,,,
610554085,,Seefahrtstraße,,53.1650098,8.6456759,,,,,,
249560976,,Schönebecker Straße,,53.1668768,8.6366889,,,,,,
610554080,,Grohn/Markt,,53.1670876,8.631718,,,,,,
5057205509,,Bf Blumenthal (Provisorium),,53.1816277,8.5797776,,,,,,
4404058948,,Martin-Luther-Straße,,53.1875897,8.5773551,,,,,,
4404043376,,Bockhorner Weg,,53.192898,8.5746147,,,,,,
4404034750,,Landrat-Berthold-Straße,,53.1979073,8.5725617,,,,,,
4404029625,,Steenkuhlenweg,,53.2015934,8.5749363,,,,,,
4404023834,,Hegeweg,,53.2042633,8.5766524,,,,,,
4404016995,,Ringofenstraße,,53.2073217,8.5785985,,,,,,
4403920561,,Hohenbuchener Straße,,53.2113628,8.5800773,,,,,,
4403905504,,Rastenburger Straße,,53.2141607,8.5832366,,,,,,
4384594963,,Insterburger Weg,,53.2194823,8.5892366,,,,,,
389568763,,Bockhorn/Landesgrenze,,53.2161224,8.5854565,,,,,,
4403905503,,Rastenburger Straße,,53.2137403,8.5827786,,,,,,
1332783836,,Hohenbuchener Straße,,53.2104996,8.5791175,,,,,,
4404016994,,Ringofenstraße,,53.2068771,8.5783278,,,,,,
4404023835,,Hegeweg,,53.2046126,8.5768831,,,,,,
4404029624,,Steenkuhlenweg,,53.2013374,8.5747734,,,,,,
4404034749,,Landrat-Berthold-Straße,,53.1973812,8.5722196,,,,,,
4404043375,,Bockhorner Weg,,53.1924569,8.5750632,,,,,,
4404058949,,Martin-Luther-Straße,,53.1885267,8.577032,,,,,,
5057205507,,Bf Blumenthal (Provisorium),,53.1816661,8.5794609,,,,,,
604557561,,Bf Vegesack,,53.1693746,8.6281955,,,,,,
610554082,,Schönebecker Straße,,53.1666782,8.6380073,,,,,,
610554086,,Seefahrtstraße,,53.1648865,8.6467127,,,,,,
250922149,,Taunusstraße,,53.1642848,8.6515086,,,,,,
2396842276,,Finkenschlag,,53.1635968,8.6568283,,,,,,
2396842487,,Richthofenstraße,,53.163765,8.6611017,,,,,,
251607255,,Am Kapellenberg,,53.1642378,8.6659603,,,,,,
251445512,,Knoops Park,,53.1657152,8.6775011,,,,,,
4404399694,,Auf dem Pasch,,53.167073,8.6843171,,,,,,
4404432784,,Lesum / Kirche,,53.1695668,8.6889209,,,,,,
412821604,,Stehnckenshoff,,53.1687008,8.6957493,,,,,,
389569667,,Bockhorn/Landesgrenze,,53.2161499,8.5856368,,,,,,
4404198738,,Grohn/Markt,,53.1670626,8.630773,,,,,,
660061149,,Helsingborger Platz,,53.1786742,8.7239445,,,,,,
4425715445,,Bahnhof Burg,,53.1604835,8.7044197,,,,,,
2446597961,,Gröpelingen,,53.1203335,8.7523452,,,,,,
30993144,,Riedemannstraße,,53.1352397,8.7158936,,,,,,
4428256200,,Auf den Delben,,53.1419086,8.7137547,,,,,,
4425715446,,Bahnhof Burg,,53.160756,8.7043079,,,,,,
296380319,,Lesum Park,,53.1738588,8.680946,,,,,,
2399955148,,Hinnebecker Straße,,53.1914581,8.5610118,,,,,,
610645667,,An der Lehmkuhle,,53.1938308,8.5663222,,,,,,
1561454504,,Vorberger Straße,,53.1967558,8.5657619,,,,,,
610645681,,Köhlhorster Straße,,53.1996369,8.5627732,,,,,,
610645708,,Neuenkirchener Weg,,53.2015131,8.5600878,,,,,,
610645677,,Am Fillerkamp,,53.1988066,8.5534854,,,,,,
610645673,,Cranzer Straße,,53.1959028,8.5481303,,,,,,
603958609,,Cranzer Straße,,53.196426,8.5490053,,,,,,
2399955145,,Am Fillerkamp,,53.1988632,8.5536287,,,,,,
2399955149,,Neuenkirchener Weg,,53.2015759,8.5602408,,,,,,
610645700,,Köhlhorster Straße,,53.1990054,8.5634254,,,,,,
2603373193,,Vorberger Straße,,53.1972799,8.5652036,,,,,,
610645664,,An der Lehmkuhle,,53.1935908,8.5657132,,,,,,
2399955146,,Hinnebecker Straße,,53.1914202,8.5609426,,,,,,
3731163600,,Lesum Park,,53.173875,8.6814237,,,,,,
30993149,,Stahlwerk Tor 1,,53.1384216,8.7140639,,,,,,
610645646,,Am Knick,,53.193923,8.5554593,,,,,,
4434709741,,Heidlerchenstraße,,53.191085,8.554161,,,,,,
610645633,,Am Rönnebecker Hain,,53.1926755,8.5512367,,,,,,
610645625,,Bf Turnerstraße,,53.1940318,8.5459873,,,,,,
2446627888,,Buschdeel,,53.1906491,8.5429979,,,,,,
2822012806,,Bf Turnerstraße,,53.1941646,8.5452535,,,,,,
610645629,,Am Rönnebecker Hain,,53.1924458,8.5516562,,,,,,
610645639,,Heidlerchenstraße,,53.1907994,8.5554847,,,,,,
610645643,,Am Knick,,53.1941102,8.5556201,,,,,,
2296344156,,Fellendsweg,,53.0521755,8.8398842,,,,,,
2296344170,,Kästnerstraße,,53.0539712,8.8407969,,,,,,
2296344163,,Holzdamm,,53.0554981,8.84369,,,,,,
2008271561,,Karl-Carstens-Brücke,,53.0538132,8.8507231,,,,,,
767994958,,Habenhauser Landstraße,,53.050892,8.8561678,,,,,,
2296344167,,Josef-Böhm-Straße,,53.033906,8.843053,,,,,,
767995016,,Martin-Buber-Straße,,53.0350672,8.8407806,,,,,,
767995008,,Kattenturm-Mitte,,53.0347117,8.8261058,,,,,,
26814689,,Klinikum Links der Weser,,53.0370344,8.8223766,,,,,,
2425194134,,Klinikum haupteingang,,53.0365116,8.8176798,,,,,,
767994989,,Heukämpendamm,,53.0326937,8.8395021,,,,,,
2295799049,,Huckelriede,,53.0517842,8.8198571,,,,,,
767994984,,Habenhauser Landstraße,,53.0509756,8.8560113,,,,,,
767994975,,Kattenturm-Mitte,,53.0352591,8.8260138,,,,,,
2296344166,,Josef-Böhm-Straße,,53.0338236,8.8429917,,,,,,
2008271552,,Karl-Carstens-Brücke,,53.0537609,8.8508126,,,,,,
2296344162,,Holzdamm,,53.0554537,8.8442286,,,,,,
2296344171,,Kästnerstraße,,53.0543613,8.8409939,,,,,,
2296344157,,Fellendsweg,,53.0525009,8.8400534,,,,,,
767994952,,Klinikum Links der Weser,,53.0374124,8.821674,,,,,,
767994961,,Heukämpendamm,,53.032495,8.8398022,,,,,,
2435442800,,Wolfskuhlenweg,,53.0394778,8.8155034,,,,,,
802118423,,Ochtum Park,,53.0286287,8.8066292,,,,,,
2378562741,,Bardenflethstraße,,53.0602695,8.7641142,,,,,,
2563849697,,Solinger Straße,,53.0615425,8.7741344,,,,,,
840885562,,Dortmunder Straße,,53.0590256,8.7780123,,,,,,
840885535,,BSAG-Zentrum,,53.0609753,8.7848701,,,,,,
2562313301,,Neuenlander Kämpe,,53.056284,8.7839847,,,,,,
25715078,,Flughafen,,53.0541823,8.7854235,,,,,,
833346814,,Cornelius-Edzard-Straße,,53.0538966,8.7915421,,,,,,
3295714508,,Paul-Feller-Straße,,53.056006,8.7953486,,,,,,
25680646,,Arsterdamm,,53.0465167,8.8189275,,,,,,
767994954,,Robert-Koch-Straße,,53.0440043,8.8241022,,,,,,
703392913,,Anna-Stiegler-Straße,,53.0409061,8.8281429,,,,,,
2562313295,,Huckelriede,,53.051805,8.8189593,,,,,,
30891923,,Hauptbahnhof,,53.0821074,8.8135271,,,,,,
21316801,,Huckelriede,,53.0516787,8.8193566,,,,,,
4427832715,,Bf Schönebeck,,53.1734602,8.6464658,,,,,,
2568003906,,Bremen-Vegesack,,53.1710163,8.6324922,,,,,,
2576177622,,Bremen-Aumund,,53.1853598,8.6169006,,,,,,
2563849474,,Klinikum Bremen-Nord/Beckedorf,,53.1852427,8.5942087,,,,,,
2563849457,,Bremen-Blumenthal,,53.183712,8.5806046,,,,,,
257290382,,Bremen Mühlenstraße,,53.185488,8.5706177,,,,,,
2563849462,,Bremen-Kreinsloger,,53.1889315,8.5573298,,,,,,
31278641,,Bremen Turnerstraße,,53.1935036,8.5447688,,,,,,
2020720186,,Bremen-Farge,,53.2048843,8.5158145,,,,,,
257290397,,Bremen-Vegesack,,53.1708252,8.6322796,,,,,,
27035938,,Bremen-Schönebeck,,53.172662,8.6522585,,,,,,
1342098708,,Bremen-St. Magnus,,53.1714328,8.6712029,,,,,,
322052116,,Bremen-Lesum,,53.1707061,8.6882194,,,,,,
2563849458,,Bremen-Burg,,53.1596948,8.7048867,,,,,,
26026004,,Bremen-Oslebshausen,,53.1350051,8.7425975,,,,,,
2563849468,,Bremen-Walle,,53.103367,8.7865402,,,,,,
2563849464,,Bremen-Sebaldsbrück,,53.0604558,8.8889177,,,,,,
2565698553,,Bremen-Mahndorf,,53.0393023,8.9459948,,,,,,
2574919469,,Unnamed train stop.,,53.5350531,8.5997911,,,,,,
416432433,,Unnamed train stop.,,53.0833147,8.8148343,,,,,,
778923223,,Unnamed train stop.,,53.0877023,8.9356592,,,,,,
4162307838,,Bremen Hbf,,53.0835459,8.8140657,,,,,,
2904805463,,Friedehorst,,53.1769784,8.6847747,,,,,,
4450433355,,Struckbergstraße,,53.1800358,8.7320639,,,,,,
3640304688,,Franziusstraße,,53.567878,8.5653882,,,,,,
506750607,,Lloyd-Werft,,53.5693902,8.5604888,,,,,,
3640304686,,Erzhafen,,53.5731997,8.5602197,,,,,,
1861586361,,Container-Terminal I,,53.5811046,8.5478947,,,,,,
3640305904,,Zolltor Wurster Straße,,53.5959072,8.5397568,,,,,,
1244694887,,Unnamed train stop.,,53.0865927,8.9403178,,,,,,
775544345,,Unnamed train stop.,,53.0840909,8.8127024,,,,,,
1994463734,,Unnamed train stop.,,53.5350288,8.5995133,,,,,,
2574919481,,Unnamed train stop.,,53.5088309,8.6115355,,,,,,
2095661251,,Bremen ZOB Breitenweg,,53.0821401,8.8105896,,,,,,
4454886209,,Aumunder Weidestraße,,53.194396,8.6149912,,,,,,
4159941918,,Lankenauer Höft,,53.1078054,8.7410882,,,,,,
255402609,,Rablinghausen,,53.096256,8.7460892,,,,,,
4205968889,,Wilhelm-Kaisen-Brücke,,53.0719515,8.8030042,,,,,,
2576185069,,Messe-Zentrum,,53.0845593,8.8167823,,,,,,
2576185064,,Bürgerpark,,53.0862898,8.8181929,,,,,,
2576185331,,Bürgerpark,,53.0866887,8.8183064,,,,,,
2576185068,,Messe-Zentrum,,53.0843903,8.8166559,,,,,,
273238791,,BSAG-Zentrum,,53.0614534,8.7868959,,,,,,
2424458528,,Kirchbachstraße,,53.0847515,8.8509305,,,,,,
4402764640,,Vorlöhnhorster Weg,,53.1907488,8.6354251,,,,,,
602205386,,Dobbheide,,53.1906215,8.6311785,,,,,,
604557711,,Machandelweg,,53.188182,8.6293942,,,,,,
279390259,,Kaspar-Ohm-Straße,,53.1841665,8.6264094,,,,,,
300950395,,Ascherfeld,,53.1781634,8.6247429,,,,,,
606169433,,Aumunder Kirche,,53.1744102,8.623985,,,,,,
604557599,,Bf Vegesack,,53.1697553,8.6283579,,,,,,
606169438,,Aumunder Kirche,,53.1752794,8.6242875,,,,,,
606169443,,Ascherfeld,,53.178893,8.6249299,,,,,,
4383720815,,Martinsheide,,53.1833566,8.6260986,,,,,,
604557704,,Borchsholt,,53.182946,8.6343984,,,,,,
604557718,,Ziegeleiweg,,53.1858632,8.6376531,,,,,,
604557726,,Herbartstraße,,53.1885375,8.6406411,,,,,,
2295106447,,Aumunder Weidestraße,,53.1947326,8.6150382,,,,,,
2396842296,,Milchstraße,,53.1925607,8.6171911,,,,,,
2295106481,,Lerchenstraße,,53.190696,8.6184409,,,,,,
2396842496,,Wilhelm-Zöllig-Straße,,53.1861406,8.6191371,,,,,,
4384594956,,Bf Vegesack,,53.1700892,8.6279496,,,,,,
4426707500,,Gröpelingen,,53.1214837,8.7526593,,,,,,
1747463380,,Blumenkamp,,53.1684836,8.6615385,,,,,,
