stop_id,stop_code,stop_name,stop_desc,stop_lat,stop_lon,zone_id,stop_url,location_type,parent_station,stop_timezone,wheelchair_boarding
3455193488,,Römerkastell A,,49.2270846,7.0207438,,,,,,
5298309916,,Halberg,,49.225547,7.026316,,,,,,
3455211377,,Schneidershof,,49.2257493,7.0355784,,,,,,
5301563274,,Saarbasar,,49.2286788,7.0363577,,,,,,
3455247897,,Neuscheidt,,49.2252495,7.0429765,,,,,,
335092233,,Schafbrücke Bahnhof,,49.2266891,7.0488669,,,,,,
297460778,,Mockental,,49.2375428,7.0561765,,,,,,
297460781,,Hammerweg,,49.2423789,7.0586274,,,,,,
297460783,,Scheidt Bahnhof,,49.2443942,7.0590074,,,,,,
277740745,,Scheidt Bahnhof,,49.246441,7.058253,,,,,,
271344448,,Scheidt Im Flürchen,,49.2476399,7.056769,,,,,,
315270310,,Bartenberg,,49.2510489,7.0552133,,,,,,
732406919,,Stuhlsatzenhaus B,,49.2591072,7.051633,,,,,,
5330061356,,Universität Busterminal B,,49.2577507,7.0476261,,,,,,
5299929922,,Universität Mensa,,49.2564126,7.0429347,,,,,,
344240647,,Universität Campus,,49.2547174,7.0403373,,,,,,
5299929926,,Universität Botanischer Garten,,49.2548632,7.0371763,,,,,,
335600561,,Guckelsberg,,49.2645352,7.050168,,,,,,
365740833,,Hermann-Löns-Straße,,49.2683364,7.0454009,,,,,,
490231020,,Beim Weisenstein,,49.2717717,7.041481,,,,,,
368320463,,Dudweiler Bürgerhaus,,49.2740612,7.0401765,,,,,,
1586891245,,Dudweiler Markt,,49.2753733,7.0364951,,,,,,
2470507979,,Dudweiler Dudoplatz B,,49.276422,7.0329183,,,,,,
732048497,,Dudweiler Dudoplatz B,,49.2764505,7.0330003,,,,,,
5330061355,,Universität Busterminal F,,49.2573981,7.0473459,,,,,,
5299929929,,Landessportschule,,49.2524583,7.0323841,,,,,,
5299929930,,Wildpark,,49.2490115,7.026411,,,,,,
5299929932,,Waldhaus,,49.2462533,7.0209709,,,,,,
331862564,,Prinzenweiher/DJH,,49.2433789,7.0118103,,,,,,
5300080867,,An der Trift,,49.2419317,7.0075042,,,,,,
335857281,,Brauerstraße/Fernbusbahnhof,,49.2401746,7.0000431,,,,,,
759214633,,Haus der Zukunft B,,49.2385384,6.9979364,,,,,,
5300080870,,Stadtbad,,49.2396048,6.9950893,,,,,,
5300080861,,"Hauptbahnhof C, Saarbrücken",,49.2402327,6.9898115,,,,,,
3452155411,,Trierer Straße C,,49.2402489,6.9845333,,,,,,
3452155408,,Auf der Werth/Bürgerpark,,49.2391441,6.9797631,,,,,,
3452128141,,Malstatter Markt,,49.2393151,6.9747373,,,,,,
5300080859,,Brückenstraße C,,49.2384352,6.9708169,,,,,,
818631779,,Betriebshof S+B,,49.2336659,6.9737619,,,,,,
907426045,,"Am Zoll, Nonnweiler",,49.6126415,6.9634097,,,,,,
907426352,,"Kreuzung Nord, Nonnweiler",,49.6093307,6.9638208,,,,,,
907426587,,Nonnweiler Dorfplatz,,49.6065012,6.9698269,,,,,,
907425726,,"Am Hammerberg, Nonnweiler",,49.6054654,6.9742058,,,,,,
5335879304,,"Ortseingang, Nonnweiler",,49.6038895,6.9767636,,,,,,
907426461,,"Europäische Akademie, Otzenhausen Nonnweiler",,49.6038415,6.9856396,,,,,,
5335879303,,"Einkaufszentrum, Otzenhausen Nonnweiler",,49.6035818,6.9891044,,,,,,
3450389053,,"Ringwall, Otzenhausen Nonnweiler",,49.6160409,6.9960881,,,,,,
907426794,,Otzenhausen Marktplatz,,49.6035419,6.9950296,,,,,,
5196878573,,Otzenhausen Bahnhofstraße,,49.6057833,6.9997729,,,,,,
5187057430,,Schwarzenbach Steinkaul,,49.6051897,7.0166883,,,,,,
1989572015,,Schwarzenbach Ziegelhütte,,49.6019554,7.0254581,,,,,,
907426017,,Schwarzenbach Oldenburger Straße,,49.5957667,7.0196815,,,,,,
5182334039,,Schwarzenbach Friedhof,,49.5996619,7.0236795,,,,,,
907425994,,Eisen Ortsmitte,,49.6088054,7.0566072,,,,,,
907426698,,"Hunsrückstraße, Eisen Nohfelden",,49.6060449,7.0508568,,,,,,
907426142,,Sötern Abzweig Eisen,,49.6035346,7.0462298,,,,,,
907426707,,Sötern Abzweig Feckersbach,,49.5993082,7.0565099,,,,,,
1989572029,,"GH Goldener Hirsch, Sötern Nohfelden",,49.5961543,7.0621163,,,,,,
1989572021,,"Sötern Gasthaus Fries, Nohfelden",,49.5929171,7.0659711,,,,,,
4104477506,,Sötern Abzweig Eckelhausen,,49.5879748,7.0690274,,,,,,
5403369815,,Eckelhausen Hörmann,,49.5856143,7.0780162,,,,,,
4104459689,,Eckelhausen Hörmann,,49.5856001,7.0778486,,,,,,
4096011791,,Türkismühle Forsthaus,,49.5805733,7.0926043,,,,,,
4096011792,,Türkismühle Kirche,,49.5800603,7.1016234,,,,,,
793262680,,Türkismühle Bahnhof,,49.580571,7.1142059,,,,,,
5301563275,,Am Zoo,,49.2283072,7.0404337,,,,,,
5301563278,,Gördelerstraße,,49.2280549,7.0442425,,,,,,
1139896204,,Breslauer Straße,,49.2318537,7.0492216,,,,,,
899421347,,Schlesienring,,49.2324515,7.0497857,,,,,,
1139894733,,Danzigerstraße,,49.2353824,7.0498945,,,,,,
899404866,,Eschberg Tilsiter Straße,,49.2367694,7.0490387,,,,,,
899421310,,Mecklenburgring,,49.2378984,7.0457014,,,,,,
899421293,,Telekom,,49.2379524,7.0409736,,,,,,
899421261,,Carl-Duisberg-Haus,,49.2375103,7.0361544,,,,,,
899421255,,Westpreußenring,,49.2356505,7.0357415,,,,,,
5298115589,,Kobenhütte,,49.23553,7.03089,,,,,,
5296650598,,Heidenkopferdell,,49.233513,7.025878,,,,,,
5301563280,,Stadion Kieselhumes C,,49.2331063,7.0210574,,,,,,
5301563282,,Zweibrücker Straße,,49.2359632,7.0206075,,,,,,
5301563283,,Schwarzenbergstraße,,49.2392136,7.0182914,,,,,,
5298622455,,Ilsestraße F,,49.2405427,7.0181617,,,,,,
5298622451,,Ilsestraße A,,49.2411163,7.0183361,,,,,,
899421282,,Rotenbühl Ende,,49.2416816,7.0242687,,,,,,
5298622469,,Rotenbühl,,49.241948,7.023592,,,,,,
5298622456,,Ilsestraße B,,49.2411404,7.0182465,,,,,,
5298622450,,Ernst-Wagner-Weg,,49.2395906,7.013691,,,,,,
5298622447,,Heimgarten,,49.2386508,7.0100333,,,,,,
5298622446,,Preußenstraße,,49.238181,7.007707,,,,,,
5298622461,,Deutsche Rentenversicherung Saarland,,49.23732,7.004084,,,,,,
5308747730,,Haus der Zukunft D,,49.2375325,6.9995382,,,,,,
5298622474,,Johanneskirche,,49.236841,6.9966845,,,,,,
5298622470,,Rabbiner-Rülf-Platz,,49.2341744,6.9935527,,,,,,
5298622473,,Rabbiner-Rülf-Platz,,49.234208,6.9935,,,,,,
5298622472,,Rabbiner-Rülf-Platz,,49.23432,6.993648,,,,,,
5298622471,,Rabbiner-Rülf-Platz,,49.234429,6.99378,,,,,,
310784070,,Hansahaus/Ludwigskirche A,,49.2329961,6.9881631,,,,,,
142629691,,Keplerstraße,,49.2318498,6.9847888,,,,,,
5298622467,,Am Versorgungshaus,,49.230107,6.982371,,,,,,
5298622463,,Schutzbergstraße,,49.2277834,6.980268,,,,,,
289743468,,Bellevue A,,49.2251481,6.9763795,,,,,,
5298622465,,Deutsch-Franz. Garten DFG Süd,,49.220778,6.97132,,,,,,
267041520,,Südring C,,49.2186457,6.9678214,,,,,,
899606041,,Hirtenwies,,49.2207456,6.9648208,,,,,,
899605974,,Folsterhöhe Siedlung,,49.2230325,6.963818,,,,,,
771482739,,Turmschulhaus,,49.2796163,7.0371128,,,,,,
771482740,,Turmschulhaus,,49.2795907,7.0367444,,,,,,
898125909,,Am Sandberg,,49.2819038,7.0379681,,,,,,
898125743,,Am Sandberg,,49.2818256,7.037905,,,,,,
898125805,,Felsenstraße,,49.2845691,7.0362098,,,,,,
925575991,,Felsenstraße,,49.2844368,7.0360905,,,,,,
898125684,,Mainstraße,,49.2860476,7.0342475,,,,,,
925575993,,Mainstraße,,49.285938,7.0341646,,,,,,
898125705,,Feldstraße,,49.2879796,7.0321006,,,,,,
925575995,,Feldstraße,,49.2875808,7.0321275,,,,,,
2955557585,,Grühlingshöhe,,49.2901318,7.0290027,,,,,,
2955557584,,Grühlingshöhe,,49.2899153,7.0294172,,,,,,
2957358758,,Camphausen,,49.2943114,7.0274584,,,,,,
901207367,,Camphausen Grube,,49.2990004,7.0259789,,,,,,
930117087,,Camphausen Grube,,49.2991395,7.025777,,,,,,
930117067,,Fischbach Rußhütter Straße,,49.3040577,7.0268289,,,,,,
901207854,,Fischbach Rußhütter Straße,,49.3037849,7.0263099,,,,,,
4708275292,,Fischbach Markt,,49.3074547,7.0287272,,,,,,
687654082,,Fischbach Markt,,49.3071493,7.0279916,,,,,,
911789595,,Fischbach Hölzerbachstraße,,49.3094224,7.0314275,,,,,,
901207691,,Fischbach Hölzerbachstraße,,49.309627,7.0313953,,,,,,
930117077,,Quierschied Krankenhaus,,49.3116597,7.0374612,,,,,,
901207450,,Quierschied Krankenhaus,,49.3116824,7.0372184,,,,,,
930117047,,Quierschied Auf der Brach,,49.3136691,7.0427118,,,,,,
2413723284,,Quierschied Auf der Brach,,49.3137186,7.0426401,,,,,,
930117052,,Quierschied Struma,,49.3164922,7.0483398,,,,,,
901207370,,Quierschied Struma,,49.3165307,7.0481949,,,,,,
930117060,,Quierschied Denkmal,,49.3223253,7.0547453,,,,,,
310672021,,Quierschied Denkmal,,49.3223462,7.0545881,,,,,,
310672023,,Quierschied Alter Markt,,49.3247775,7.0534814,,,,,,
310672022,,Quierschied Alter Markt,,49.3246796,7.0533687,,,,,,
744601284,,Quierschied Steinberg,,49.3263703,7.0417136,,,,,,
930124899,,Quierschied Alte Post,,49.3263746,7.0490267,,,,,,
901207677,,Quierschied Taubenfeldschule,,49.3289094,7.0507084,,,,,,
2721103044,,Quierschied Humes,,49.3292831,7.0568565,,,,,,
930124912,,Quierschied Humes,,49.3292462,7.0567309,,,,,,
921375703,,Quierschied Bahnhof,,49.3250368,7.0585903,,,,,,
831294506,,Quierschied Bahnhof,,49.3249574,7.058811,,,,,,
831297888,,Brefeld Am Kreuzgraben,,49.3114194,7.052742,,,,,,
831297894,,Brefeld Am Kreuzgraben,,49.3110609,7.0527345,,,,,,
371399341,,Brefeld Bahnhof,,49.312938,7.0501712,,,,,,
930129821,,Brefeld L126,,49.3087131,7.052043,,,,,,
901472862,,Brefeld L126,,49.308867,7.0523783,,,,,,
831297924,,Hühnerfeld Kreisel,,49.3063358,7.055932,,,,,,
831297884,,Hühnerfeld Kreisel,,49.3064097,7.0559428,,,,,,
712397195,,Sulzbach Sportzentrum,,49.3037167,7.0573921,,,,,,
771477860,,Sulzbach Sportzentrum,,49.3039119,7.0579005,,,,,,
3354026214,,Sulzbach Untere Goldene Au,,49.3003687,7.0513285,,,,,,
3354026215,,Sulzbach Nelkenstraße,,49.2985532,7.0484795,,,,,,
901207648,,Obere Goldene Au,,49.2996327,7.0472821,,,,,,
901207899,,Fischbacher Weg,,49.3000385,7.0490523,,,,,,
831297901,,Sulzbach Bahnhof,,49.2993418,7.0554999,,,,,,
831298570,,Sulzbach Bahnhof,,49.2992655,7.055688,,,,,,
831301746,,Sulzbach Bahnhofstraße,,49.2976456,7.0577258,,,,,,
831301745,,Sulzbach Bahnhofstraße,,49.2977431,7.0576082,,,,,,
930134048,,Sulzbach Rathaus,,49.2991832,7.0615635,,,,,,
901207817,,Sulzbach Rathaus,,49.2992176,7.0611225,,,,,,
298417820,,Schnappacher Weg,,49.3002788,7.0649494,,,,,,
298417822,,Schnappacher Weg,,49.3002092,7.0645898,,,,,,
901207561,,Sulzbach Wendeschleife,,49.301039,7.067463,,,,,,
5299929934,,Ilseplatz,,49.2423552,7.0151584,,,,,,
5298622453,,Ilsestraße C,,49.2413317,7.0170531,,,,,,
277741765,,St.Ingbert Bahnhof,,49.2747283,7.1118274,,,,,,
560415714,,St Ingbert Rendezvous−Platz,,49.2781137,7.1120045,,,,,,
906936673,,Alleestraße,,49.2772406,7.107114,,,,,,
906937286,,In den Schankgärten,,49.2767086,7.1009663,,,,,,
2964012535,,St.Ingbert Schlackenbergstraße,,49.2758089,7.0914736,,,,,,
340010142,,St.Ingbert Schlackenbergstraße,,49.2758798,7.0921221,,,,,,
1422581742,,Unnamed bus stop.,,49.2764238,7.0502172,,,,,,
1422581758,,Unnamed bus stop.,,49.2764803,7.0498041,,,,,,
899562540,,Rußhütte,,49.2613638,6.9796255,,,,,,
899562531,,Am Brünnchen,,49.2614433,6.9786146,,,,,,
899562459,,Heinrichshausweg,,49.2605836,6.9759688,,,,,,
899562483,,Rußhütte Schule,,49.2584499,6.9756212,,,,,,
899562388,,Steinbachstraße,,49.2586387,6.972403,,,,,,
899562487,,Finkenstraße,,49.2571256,6.9708599,,,,,,
735042167,,Bernkasteler Platz,,49.2566601,6.9651886,,,,,,
3725779967,,Am Gilbenkopf,,49.2553221,6.9670807,,,,,,
899562422,,Am Gilbenkopf,,49.2556097,6.9675611,,,,,,
899562594,,Enkircher Weg,,49.2534924,6.9633305,,,,,,
275923749,,Rastpfuhl,,49.2504498,6.9636016,,,,,,
275923751,,Rastpfuhl,,49.250401,6.9632346,,,,,,
899562372,,Schaumbergstraße,,49.2514636,6.9677066,,,,,,
899562455,,Johanna-Kirchner-Haus,,49.2499037,6.9692533,,,,,,
899562451,,Taunusstraße,,49.2482546,6.970909,,,,,,
440863667,,Pariser Platz/St.Paulus,,49.2469671,6.9672522,,,,,,
802168310,,Pariser Platz/St.Paulus,,49.2464212,6.9681948,,,,,,
899562400,,Dresdener Straße,,49.2463353,6.966209,,,,,,
899562548,,Ahrstraße,,49.2467062,6.9627894,,,,,,
899562517,,Caritas Klinik,,49.247617,6.959643,,,,,,
899562575,,Waldfriedhof,,49.2495236,6.9535975,,,,,,
898163731,,Herz-Jesu-Kirche,,49.2471684,6.9511794,,,,,,
288290200,,Langfuhrstraße,,49.2465563,6.9483852,,,,,,
266209479,,An der Grüneich,,49.2444967,6.948349,,,,,,
266209483,,An der Grüneich,,49.2444595,6.9486243,,,,,,
361439049,,Mühlhauser Straße,,49.2441122,6.9514882,,,,,,
898163774,,Weißenburger Straße,,49.2430278,6.9571873,,,,,,
3451512784,,Hochstraße,,49.2411197,6.9613789,,,,,,
3451523652,,Hochstraße,,49.2412344,6.9598749,,,,,,
879665482,,Westpark,,49.2380363,6.9583952,,,,,,
930836624,,Metzer Brücke,,49.2399881,6.9691823,,,,,,
899562552,,Metzer Brücke,,49.2404492,6.9677691,,,,,,
5300143113,,Brückenstraße A,,49.2398081,6.9704039,,,,,,
818631773,,Betriebshof S+B,,49.2336385,6.972883,,,,,,
5300080866,,HTW/SWS,,49.233762,6.9780344,,,,,,
5300080865,,HTW/SWS,,49.2339304,6.978026,,,,,,
5300080863,,Roonstraße B,,49.23393,6.9817496,,,,,,
5300080864,,Roonstraße A,,49.2340788,6.981767,,,,,,
310784068,,Hansahaus/Ludwigskirche E,,49.2334692,6.988998,,,,,,
310784066,,Hansahaus/Ludwigskirche C,,49.2337209,6.9875845,,,,,,
304004158,,Rathaus,,49.2350298,6.9961987,,,,,,
5298622459,,Rathaus,,49.234814,6.996053,,,,,,
5298622458,,Rathaus,,49.234757,6.995957,,,,,,
5298622457,,Rathaus,,49.234702,6.995873,,,,,,
417684108,,Unnamed bus stop.,,49.3210297,6.7461937,,,,,,
5221329457,,Saarlouis Hauptbahnhof C,,49.3271522,6.7503714,,,,,,
5221309124,,Saarlouis Hauptbahnhof B,,49.3271008,6.7505541,,,,,,
3452159940,,Trierer Straße,,49.2406935,6.985423,,,,,,
3452166625,,Trierer Straße,,49.2406466,6.9860013,,,,,,
354613926,,Brauerstraße/Fernbusbahnhof,,49.2403997,7.0004415,,,,,,
638562546,,Haus der Zukunft A,,49.2387265,6.9981204,,,,,,
5230936027,,Verladebahnhof,,49.2482783,7.0052893,,,,,,
899606011,,Luisenbrücke,,49.2360183,6.9898517,,,,,,
901207787,,Quierschied Untere Brach,,49.3144403,7.0419445,,,,,,
899421335,,Hauptgüterbahnhof,,49.2431582,7.0029776,,,,,,
2961189136,,Merchweiler Auf Pfuhlst,,49.3461046,7.0488156,,,,,,
2961212142,,Merchweiler Auf Pfuhlst,,49.3467801,7.0477868,,,,,,
4899357029,,Rathaus,,49.3690498,7.0884341,,,,,,
4899357028,,Rathaus,,49.3689057,7.0882643,,,,,,
904585096,,Landsweiler-Reden Post,,49.3569669,7.1280516,,,,,,
904585297,,"Bahnhofstr., Landsweiler-Reden Schiffweiler",,49.3541815,7.1230464,,,,,,
271785604,,Friedrichsthal Markt,,49.3222729,7.0960934,,,,,,
2964514003,,Friedlandstraße,,49.3236275,7.0820973,,,,,,
440859397,,Riegelsberg Süd,,49.2943098,6.9532136,,,,,,
258599242,,Hixberg Wasserturm,,49.2913418,6.9289392,,,,,,
2958209687,,Hixberg Lange Straße,,49.2938178,6.9310023,,,,,,
2958209685,,Hixberg Lange Straße,,49.2939148,6.9310947,,,,,,
2958216873,,Hixberg Tankstelle,,49.2951831,6.933928,,,,,,
2958216872,,Hixberg Tankstelle,,49.2953187,6.9343594,,,,,,
3452189398,,Landwehrplatz,,49.2334004,7.0015287,,,,,,
901207812,,Altenwald Torhaus,,49.3124178,7.0685655,,,,,,
2964499362,,"Klaraschacht, Friedrichsthal",,49.3181062,7.0768195,,,,,,
2964520661,,"Friedhof, Altenwald Sulzbach",,49.3149736,7.0727241,,,,,,
2957137480,,Fischbach Pflanzgarten,,49.3026456,7.0335637,,,,,,
902814898,,Wibilostraße,,49.3743851,7.1867711,,,,,,
1108340522,,Wibilostraße,,49.3742857,7.1868975,,,,,,
2411332538,,Ziehwaldstraße,,49.3570217,7.1832366,,,,,,
2411332537,,Ziehwaldstraße,,49.356965,7.182431,,,,,,
2711545261,,Limbach Kolonie,,49.312955,7.2601822,,,,,,
2711545262,,Limbach Kolonie,,49.3130005,7.2601989,,,,,,
347723293,,Limbach Schule,,49.3156678,7.2716127,,,,,,
2711400390,,Limbach Schule,,49.3156211,7.2716646,,,,,,
2711355150,,Limbach Rathaus,,49.3169731,7.2776373,,,,,,
2711355147,,Limbach Rathaus,,49.3169307,7.2776369,,,,,,
3917110953,,Beeden Schule,,49.3099411,7.3163033,,,,,,
3453503944,,Burbacher Markt B,,49.2406884,6.946727,,,,,,
3453520149,,Brunnenstraße,,49.2412431,6.9495908,,,,,,
3453544981,,Brunnenstraße,,49.2414277,6.9502077,,,,,,
5221309125,,Saarlouis Hauptbahnhof A,,49.3272035,6.7501889,,,,,,
2958302201,,Griesborn Hülzweiler Weg,,49.3034231,6.8055809,,,,,,
2958309894,,Griesborn Hülzweiler Weg,,49.3031045,6.8065294,,,,,,
2958313996,,Schwalbach Albero-Schule,,49.3032628,6.8143459,,,,,,
2958313993,,Schwalbach Albero-Schule,,49.3029725,6.8137214,,,,,,
2958319554,,Schwalbach Bierstraße,,49.3047482,6.81855,,,,,,
2958319540,,Schwalbach Bierstraße,,49.304793,6.8186699,,,,,,
2958319414,,Schwalbach Gluckenhof,,49.3072009,6.8231488,,,,,,
2958319403,,Schwalbach Gluckenhof,,49.3074754,6.8229711,,,,,,
5221309126,,Saarlouis Hauptbahnhof D,,49.3273867,6.7492197,,,,,,
2963972821,,Südendstraße,,49.2669431,7.1072611,,,,,,
2962588010,,Sengscheid Steinkopfweg,,49.2546841,7.1003838,,,,,,
2711568593,,St Ingbert Sengscheid Abzw.,,49.2592867,7.1041411,,,,,,
423832107,,Fliederstraße,,49.2615606,7.1065394,,,,,,
295052881,,Funkhaus Halberg,,49.2214756,7.0325778,,,,,,
3455191595,,Römerkastell B,,49.2269604,7.0210964,,,,,,
5298309915,,Schneidershof,,49.225947,7.03546,,,,,,
5298309918,,Halberg,,49.225668,7.027119,,,,,,
3455191594,,Römerkastell C,,49.2271664,7.0211791,,,,,,
5298115586,,Ostbahnhof,,49.230458,7.020626,,,,,,
5296650597,,Stadion Kieselhumes A,,49.233061,7.022207,,,,,,
5296650595,,Heidenkopferdell,,49.233481,7.027177,,,,,,
5298115588,,Kobenhütte,,49.235359,7.031228,,,,,,
899405107,,Pater-Delp-Straße,,49.233907,7.0361634,,,,,,
899405036,,Westpreußenring,,49.235725,7.0356811,,,,,,
1139879980,,Carl-Duisberg-Haus,,49.2376798,7.036372,,,,,,
1139879974,,Telekom,,49.2376784,7.0433047,,,,,,
1139894729,,Mecklenburgring,,49.2379171,7.0459766,,,,,,
733080955,,Eschberg Tilsiter Straße,,49.2368525,7.048956,,,,,,
899421249,,Danzigerstraße,,49.2353505,7.0499108,,,,,,
1139894735,,Schlesienring,,49.2328261,7.0499522,,,,,,
899405166,,Stettiner Straße,,49.2323474,7.0437638,,,,,,
899421280,,Eschberger Weg,,49.2328929,7.0390752,,,,,,
899512315,,Im Helmerswald,,49.2306084,7.0323791,,,,,,
5298115582,,Quellenstraße,,49.2284715,7.029024,,,,,,
267968232,,Völklingen Bahnhof,,49.2493779,6.8485102,,,,,,
267968234,,Völklingen Bahnhof,,49.2494574,6.8483298,,,,,,
4316961837,,Kleinblittersdorf Elsässerstraße,,49.1530899,7.0373096,,,,,,
957892862,,Bliesmengen-Bolchen Sportplatz,,49.1488997,7.1123353,,,,,,
906937506,,Bliesmengen-Bolchen Sportplatz,,49.1477632,7.1120308,,,,,,
3256546033,,Blieskastel Busbahnhof A,,49.2361051,7.2589258,,,,,,
3256546036,,Blieskastel Busbahnhof B,,49.2361937,7.2589673,,,,,,
3256546035,,Blieskastel Busbahnhof C,,49.2362823,7.2590088,,,,,,
3256546034,,Blieskastel Busbahnhof D,,49.2363708,7.2590503,,,,,,
3256546039,,Blieskastel Busbahnhof E,,49.2363365,7.2592289,,,,,,
3256546037,,Blieskastel Busbahnhof F,,49.2362453,7.2591843,,,,,,
3256546038,,Blieskastel Busbahnhof G,,49.2361541,7.2591397,,,,,,
3256546040,,Blieskastel Busbahnhof H,,49.2360629,7.2590951,,,,,,
5022793385,,Saarlouis ZOB Kleiner Markt H,,49.3123089,6.7528081,,,,,,
740102891,,Saarlouis ZOB Kleiner Markt H,,49.3123214,6.7527787,,,,,,
906491627,,Eissporthalle,,49.3470313,6.7122158,,,,,,
1627891587,,Merzig Bahnhof,,49.436906,6.6346074,,,,,,
904356934,,Tünsdorf Ortsmitte B406,,49.4751206,6.4973187,,,,,,
5022793386,,Rehaklinik,,49.5077807,6.5385497,,,,,,
904357034,,Orscholz Sportplatz,,49.5052247,6.5188212,,,,,,
904356983,,Oberleuken Ortsmitte,,49.5072813,6.471361,,,,,,
904356922,,Sinz Ortsmitte,,49.5298649,6.4280572,,,,,,
846829175,,Nennig Zoll,,49.5419979,6.3735905,,,,,,
846830935,,Nennig Zoll,,49.5422833,6.3720241,,,,,,
904357063,,Mettlach Weiße Mark,,49.5102809,6.5677228,,,,,,
904356911,,Mettlach Keuchingen,,49.4974021,6.5862069,,,,,,
904356960,,Mettlach Schiffsanlegestelle,,49.4931921,6.5908269,,,,,,
904357015,,Mettlach Park,,49.4918039,6.5934944,,,,,,
904356868,,Mettlach Geissert,,49.4935789,6.6075319,,,,,,
904134499,,Losheim Heimlingen,,49.5067579,6.7326927,,,,,,
904134627,,Losheim Merziger Straße,,49.5069602,6.741115,,,,,,
846879978,,Losheim Bahnhof,,49.5065755,6.7453206,,,,,,
846879973,,Losheim Bahnhof,,49.5065244,6.745314,,,,,,
467679510,,St. Wendel ZOB,,49.4660031,7.1654044,,,,,,
846081275,,St. Wendel Globus,,49.4667742,7.1618349,,,,,,
907377077,,St.Wendel Realschule,,49.4686154,7.1542803,,,,,,
907377297,,Wendalinuspark,,49.468883,7.1452489,,,,,,
860697655,,Abzweig Gewerbegebiet,,49.468851,7.1407811,,,,,,
860697651,,Abzweig Gewerbegebiet,,49.4691207,7.1384043,,,,,,
907376952,,Harschberg,,49.4691421,7.1195302,,,,,,
531532446,,Latteck,,49.4708431,7.1028525,,,,,,
860698239,,Kirche,,49.4743105,7.1018388,,,,,,
531532360,,Kirche,,49.4755465,7.1009008,,,,,,
907377045,,Friedhof,,49.4767198,7.0971343,,,,,,
2338047725,,Abzweig Rheinstraße,,49.475664,7.0876742,,,,,,
907377278,,Abzweig Rheinstraße,,49.475645,7.088286,,,,,,
860698759,,Marpinger Straße,,49.4711735,7.0719613,,,,,,
860698762,,Apotheke,,49.4718721,7.0706453,,,,,,
860698761,,Hiwwelhaus,,49.4718714,7.0686985,,,,,,
907376905,,Schlick,,49.4731176,7.0636334,,,,,,
642193721,,Tholey Dirminger Straße (DJH),,49.4807982,7.0411247,,,,,,
662483484,,Tholey Dirminger Straße (DJH),,49.4807368,7.0409203,,,,,,
642193707,,Tholey Am Weiher,,49.4832924,7.038426,,,,,,
642193703,,Tholey Am Weiher,,49.4833787,7.0381561,,,,,,
642193717,,Tholey Rathausplatz,,49.482134,7.0324064,,,,,,
642193713,,Tholey Rathausplatz,,49.4822372,7.0323493,,,,,,
907426552,,Tholey Metzer Straße,,49.4799046,7.0247108,,,,,,
907425897,,Sotzweiler John-Lambert,,49.464982,7.0000764,,,,,,
907426379,,Sotzweiler Scherer,,49.4617377,6.9932664,,,,,,
907426610,,Sotzweiler Autobahnmeisterei,,49.4553888,6.9785804,,,,,,
906491837,,Thalexweiler Abzweig Steinbach,,49.447887,6.9643636,,,,,,
906491967,,Thalexweiler Schule,,49.4430261,6.9606271,,,,,,
906491632,,Aschbach Windhäuser,,49.4390446,6.9578239,,,,,,
906491657,,Aschbach Volksbank,,49.4338481,6.9497861,,,,,,
906491798,,Aschbach Schule,,49.4305105,6.9470044,,,,,,
906491926,,Aschbach Ziegelei,,49.4233534,6.9407621,,,,,,
904003763,,Neububach B269,,49.4145521,6.9298332,,,,,,
906491953,,Lebach Abzweig Gresaubach,,49.4150596,6.9197938,,,,,,
906491819,,Lebach Tholeyer Straße,,49.4126605,6.9126784,,,,,,
534305934,,Lebach Bahnhof,,49.4084066,6.9072054,,,,,,
906491990,,Knorscheid Kapelle,,49.3989492,6.8706341,,,,,,
5308747723,,"Hauptbahnhof B, Saarbrücken",,49.2402572,6.9902135,,,,,,
627186539,,Gutenbergstraße,,49.2345784,6.988796,,,,,,
276173132,,Gutenbergstraße,,49.23486,6.9891223,,,,,,
310784072,,Hansahaus/Ludwigskirche B,,49.2331492,6.9882228,,,,,,
267041636,,Südring A,,49.2176256,6.9686596,,,,,,
408471947,,Südring B,,49.2185198,6.9693474,,,,,,
934782964,,Belle Roche Arrêt de Cars,,49.1526308,6.837839,,,,,,
899737696,,Nassweiler Bremerhof I,,49.1526681,6.8361183,,,,,,
899737828,,Nassweiler Im Jungholz,,49.1561452,6.8350338,,,,,,
899737910,,Nassweiler Nassaustraße,,49.15804,6.8396947,,,,,,
899737873,,St.Nikolaus Abzweigung,,49.1681002,6.8384671,,,,,,
935901351,,St.Nikolaus Abzweigung,,49.1679559,6.8376293,,,,,,
899737756,,Nassweiler Bremerhof II,,49.1545857,6.8411844,,,,,,
899737952,,Naßweiler Post,,49.1578714,6.8437249,,,,,,
899737810,,Naßweiler Kindergarten,,49.1592869,6.8427852,,,,,,
899737708,,St. Nikolaus Schulstraße,,49.1700856,6.8298941,,,,,,
899737942,,St. Nikolaus Merlebacher Str.,,49.1712372,6.8240445,,,,,,
901472725,,Geislautern Rotweg,,49.2290223,6.8227512,,,,,,
901502863,,Ludweiler Velsen Bahnhof,,49.2180794,6.8252342,,,,,,
936439171,,Ludweiler Velsen Bahnhof,,49.2184923,6.8246951,,,,,,
901502804,,Großrosseln Velsen Grube,,49.2155858,6.8266752,,,,,,
899737837,,Schwelwerk,,49.2126953,6.8288892,,,,,,
899737741,,Schlauchstal,,49.2106091,6.831964,,,,,,
309122626,,Meisenhübel,,49.2093975,6.8336903,,,,,,
270289603,,Unnamed bus stop.,,49.2083384,6.8353998,,,,,,
899737821,,Großrosseln Sparkasse,,49.2062554,6.8402437,,,,,,
899737684,,Am Brünnchen,,49.2052539,6.8431015,,,,,,
899737771,,Im Apfeltal,,49.2034717,6.8459781,,,,,,
899737765,,Karlsbrunner Straße,,49.2030941,6.8419061,,,,,,
899737902,,Untere Feldstraße,,49.1996154,6.8372495,,,,,,
899737958,,Großrosseln In der Trift,,49.1961761,6.8336167,,,,,,
899737898,,An der Kaisereiche,,49.1934839,6.831074,,,,,,
899737936,,Dorf im Warndt Nelkenstraße,,49.1909116,6.8168119,,,,,,
899737848,,Dorf im Warndt Friedhof,,49.1873449,6.8140933,,,,,,
899737917,,Karlsbrunn Grube Warndt,,49.1840246,6.8148306,,,,,,
899737944,,Karlsbrunn Friedhof,,49.1799074,6.8160372,,,,,,
899737791,,Karlsbrunn Zum Tiefen Graben,,49.1771684,6.811968,,,,,,
899737689,,Emmersweiler Friedhof,,49.179253,6.8544186,,,,,,
899737768,,Emmersweiler Mitte,,49.1815426,6.8571301,,,,,,
899737932,,Forbacher Straße,,49.184867,6.8558932,,,,,,
899737834,,Rosseler Straße,,49.1894035,6.8532775,,,,,,
899737914,,Rübendell,,49.2010176,6.8473176,,,,,,
899737960,,Naßweiler Industriegelände,,49.1734067,6.8440555,,,,,,
899737947,,Unterführung,,49.1966668,6.8484143,,,,,,
1227170783,,Geislautern Rotweg,,49.2290625,6.8231696,,,,,,
901472310,,Geislautern Hammergraben,,49.2325725,6.8294407,,,,,,
1227170808,,Geislautern Hammergraben,,49.2321609,6.8290813,,,,,,
1227170751,,Geislautern Masselgarten,,49.2345219,6.8341667,,,,,,
901473002,,Geislautern Masselgarten,,49.2349145,6.8343313,,,,,,
901472640,,Geislautern Bahnhof,,49.2359498,6.8377799,,,,,,
1227170764,,Geislautern Bahnhof,,49.2359815,6.8379561,,,,,,
901502744,,Wehrden Ev. Kirche,,49.2406846,6.8386702,,,,,,
1227170773,,Wehrden Ev. Kirche,,49.2407332,6.838394,,,,,,
443763726,,Wehrden Brücke,,49.2452178,6.8385212,,,,,,
1227176580,,Wehrden Brücke,,49.2452142,6.8383565,,,,,,
3424578093,,Völklingen Weltkulturerbe,,49.2487544,6.8467415,,,,,,
267968185,,Völklingen Stadtbad,,49.2498932,6.8590442,,,,,,
390494699,,Völklingen Neues Rathaus,,49.2511866,6.8603989,,,,,,
901472218,,Bismarckstraße,,49.2508573,6.8539007,,,,,,
267667523,,Ludweiler Käsbergstraße,,49.225111,6.8165689,,,,,,
267667522,,Ludweiler Käsbergstraße,,49.2252148,6.8163732,,,,,,
267665188,,Ludweiler Brücke,,49.2243947,6.8132382,,,,,,
267665187,,Ludweiler Brücke,,49.2244752,6.8134086,,,,,,
901502794,,Ludweiler Hohlstraße,,49.2206617,6.8059588,,,,,,
330103345,,Ludweiler Graf-Ludwig-Gesamtschule,,49.2233227,6.8007654,,,,,,
330103346,,Ludweiler Seniorenzentrum,,49.2219879,6.798717,,,,,,
270287409,,Ludweiler Hugenottenstraße,,49.220334,6.8059052,,,,,,
267666543,,Ludweiler Hugenottenstraße,,49.2197783,6.8053809,,,,,,
267666544,,Ludweiler Hugenottenstraße,,49.2197497,6.8055265,,,,,,
267667479,,Ludweiler Kirche,,49.2214945,6.8078033,,,,,,
267667478,,Ludweiler Kirche,,49.2216601,6.808295,,,,,,
901502821,,Ludweiler Lauterbacher Straße,,49.2163974,6.8011141,,,,,,
901502930,,Ludweiler Wasserwerk,,49.2113104,6.7959443,,,,,,
901502775,,Ludweiler Jugendherberge,,49.2073815,6.7907806,,,,,,
901502832,,Ludweiler Haus Henkel,,49.2026088,6.7837098,,,,,,
901502791,,Lauterbach Weiherdamm,,49.2001635,6.7767798,,,,,,
901502853,,Lauterbach Sägewerk,,49.1888145,6.7537293,,,,,,
901502903,,Lauterbach Zum Flachstal,,49.1880643,6.7509671,,,,,,
901502842,,Lauterbach Köhlerstraße,,49.1839319,6.7445765,,,,,,
901502915,,Lauterbach Remsinger Straße,,49.1807469,6.7390061,,,,,,
901502765,,Lauterbach Dellwieserweg,,49.176926,6.7330045,,,,,,
277636976,,Völklingen Markt,,49.2504398,6.8565761,,,,,,
949646671,,Ludweiler Hohlstraße,,49.2206941,6.8056952,,,,,,
281432189,,Lisdorf Hopfenblüte,,49.3053741,6.7573402,,,,,,
740102923,,Saarlouis ZOB Kleiner Markt B,,49.3130205,6.7532938,,,,,,
904356984,,"Nennig, Bahnhof",,49.5393329,6.376462,,,,,,
904357086,,Nennig Sparkasse,,49.5343479,6.3784564,,,,,,
904356881,,Nennig Römische Villa,,49.5288752,6.383172,,,,,,
904356962,,Besch Chemisches Werk,,49.5182392,6.3768023,,,,,,
904356870,,Besch Ortsmitte B419,,49.5048632,6.3725864,,,,,,
263906969,,"Perl, Maimühle",,49.4741807,6.3713559,,,,,,
4408239879,,"Perl, Maimühle",,49.4740717,6.3712957,,,,,,
904357011,,Perl Bahnhofstraße,,49.4734771,6.376492,,,,,,
263906742,,Perl Central-Hotel,,49.4735634,6.3862805,,,,,,
904357071,,Perl Central-Hotel,,49.4735295,6.3864037,,,,,,
4390144275,,"Remich, Gare Routière",,49.5426502,6.3682463,,,,,,
1398658121,,"Remich, Gare Routière",,49.5426348,6.3682935,,,,,,
3915886481,,Homburg Studentenwohnheim,,49.3167522,7.3423032,,,,,,
3916002162,,Emilienstraße,,49.3134801,7.34368,,,,,,
289735877,,Unnamed bus stop.,,49.2972244,6.9484171,,,,,,
440859393,,Wolfskaulstraße A,,49.2972615,6.948417,,,,,,
269915401,,Unnamed bus stop.,,49.3023234,6.943333,,,,,,
1552225763,,Riegelsberg Rathaus,,49.3023573,6.9434056,,,,,,
269915390,,Unnamed bus stop.,,49.3034782,6.9407014,,,,,,
1552225680,,Marienstraße,,49.3035048,6.9407433,,,,,,
1663369860,,Unnamed bus stop.,,49.3025086,6.9371819,,,,,,
901207652,,Buchschacher Straße,,49.302542,6.9372169,,,,,,
269915959,,Unnamed bus stop.,,49.302906,6.9343043,,,,,,
901207467,,Wiesenstraße,,49.3029475,6.9342628,,,,,,
270166129,,Unnamed bus stop.,,49.3046845,6.9312924,,,,,,
901207723,,Platanenweg,,49.3047578,6.9313078,,,,,,
1663369889,,Unnamed bus stop.,,49.3072669,6.9330838,,,,,,
1552225562,,Am Wäldchen,,49.3072343,6.9331331,,,,,,
270166145,,Unnamed bus stop.,,49.3081027,6.9355106,,,,,,
1552225780,,Riegelsberg Tannenweg,,49.30806,6.9355121,,,,,,
270165789,,Unnamed bus stop.,,49.3084214,6.9383458,,,,,,
1552225806,,Riegelsberghalle,,49.3083901,6.9383829,,,,,,
934866969,,Riegelsberg Rathaus,,49.3027206,6.9439776,,,,,,
1500264782,,Riegelsberghalle,,49.3087334,6.9389997,,,,,,
1552225814,,Riegelsberghalle,,49.3087671,6.9388818,,,,,,
1663369894,,Unnamed bus stop.,,49.30811,6.9352496,,,,,,
901207324,,Riegelsberg Tannenweg,,49.3081594,6.9352515,,,,,,
1663369882,,Unnamed bus stop.,,49.3070203,6.9328441,,,,,,
901207578,,Am Wäldchen,,49.3070555,6.932787,,,,,,
1552225698,,Platanenweg,,49.3046152,6.9312794,,,,,,
1552225850,,Wiesenstraße,,49.3028922,6.9343229,,,,,,
1552225586,,Buchschacher Straße,,49.3024828,6.9371575,,,,,,
269915394,,Unnamed bus stop.,,49.3033257,6.9412362,,,,,,
901207409,,Marienstraße,,49.3032545,6.9412959,,,,,,
1552225745,,Riegelsberg Rathaus,,49.3023279,6.9432706,,,,,,
258599275,,Unnamed bus stop.,,49.2967654,6.9480923,,,,,,
1552225857,,Wolfskaulstraße C,,49.2968158,6.9481378,,,,,,
258599269,,Hixberg Kirche,,49.2970581,6.9416132,,,,,,
262826538,,Köllner Straße,,49.2977792,6.9351477,,,,,,
901207314,,Köllner Straße,,49.297807,6.93518,,,,,,
262826526,,Biekenstraße,,49.3024217,6.9298524,,,,,,
901207613,,Biekenstraße,,49.3024307,6.9299027,,,,,,
1666388272,,Am Hesselborn,,49.3057578,6.9298875,,,,,,
1552225553,,Am Hesselborn,,49.3057464,6.9299487,,,,,,
269319529,,In den Eichen,,49.309918,6.9326772,,,,,,
1666388437,,In den Eichen,,49.3098474,6.9327332,,,,,,
269319510,,Dörschbach Brücke,,49.3105862,6.9360935,,,,,,
1666388324,,Dörschbach Brücke,,49.3105215,6.9360853,,,,,,
1666388335,,Güchenbach,,49.3109576,6.9373189,,,,,,
672139543,,Güchenbach B,,49.310977,6.9373589,,,,,,
270697982,,Schmiedestraße,,49.310482,6.94331,,,,,,
1667742521,,Schmiedestraße,,49.3104244,6.9432807,,,,,,
1667742490,,Hahnenstraße,,49.3115789,6.947456,,,,,,
1667742483,,Hahnenstraße,,49.3115467,6.9474694,,,,,,
270698336,,Riegelsberg Gartenstraße,,49.3136714,6.9533246,,,,,,
1667742509,,Riegelsberg Gartenstraße,,49.3136431,6.9533673,,,,,,
270705296,,Riegelsberg Dorfstraße,,49.3156382,6.9546625,,,,,,
901207850,,Riegelsberg Dorfstraße,,49.3155996,6.9546852,,,,,,
1667742531,,Schulweg,,49.3166279,6.9517873,,,,,,
901207414,,Schulweg,,49.3166646,6.9518012,,,,,,
270701844,,In der Hohl,,49.3197615,6.94852,,,,,,
901207323,,In der Hohl,,49.3197942,6.9485716,,,,,,
270701853,,Hilschbacher Straße,,49.3200268,6.9455086,,,,,,
901207471,,Hilschbacher Straße,,49.3200698,6.9455475,,,,,,
1667742517,,Riegelsberg Stumpen,,49.3185597,6.9402499,,,,,,
440854562,,Riegelsberg Stumpen B,,49.3185609,6.9401817,,,,,,
1666388508,,Riegelsberg Rathaus,,49.3013953,6.9430306,,,,,,
1666388554,,Riegelsberg Rathaus,,49.3014281,6.9429636,,,,,,
269914478,,Hixberg Kirche,,49.2972586,6.941158,,,,,,
1552225601,,Hilschbacher Straße,,49.3199853,6.9454487,,,,,,
1552225629,,In der Hohl,,49.3197488,6.948471,,,,,,
1667742526,,Schulweg,,49.3165959,6.9517692,,,,,,
1667742504,,Riegelsberg Dorfstraße,,49.3156701,6.9545734,,,,,,
901207744,,Riegelsberg Gartenstraße,,49.3137166,6.9532556,,,,,,
1667742494,,Hahnenstraße,,49.3117101,6.9477081,,,,,,
901207674,,Hahnenstraße,,49.311762,6.9476474,,,,,,
901207823,,Schmiedestraße,,49.3105184,6.9433804,,,,,,
1666388376,,Güchenbach,,49.311202,6.9372175,,,,,,
1552225594,,Güchenbach C,,49.3112233,6.9371932,,,,,,
901207687,,In den Eichen,,49.3099472,6.9326641,,,,,,
1666388298,,Am Hesselborn,,49.3060287,6.9299839,,,,,,
901207884,,Am Hesselborn,,49.306048,6.9299468,,,,,,
262826527,,Biekenstraße,,49.3020535,6.9299697,,,,,,
1552225567,,Biekenstraße,,49.3020579,6.9299198,,,,,,
262826537,,Köllner Straße,,49.2978669,6.9350033,,,,,,
1552225661,,Köllner Straße,,49.297875,6.9348978,,,,,,
1663369845,,Unnamed bus stop.,,49.2968578,6.9472402,,,,,,
907442680,,Wolfskaulstraße D,,49.2968188,6.9472293,,,,,,
1514397326,,Riegelsberg Rathaus,,49.3014034,6.9431533,,,,,,
1666388500,,Riegelsberg Rathaus,,49.3013666,6.9431957,,,,,,
270705354,,Ziegelhütter Straße,,49.3156386,6.9475123,,,,,,
901207527,,Ziegelhütter Straße,,49.315626,6.9475164,,,,,,
1667742524,,Schulweg,,49.3152166,6.952136,,,,,,
1552225819,,Schulweg,,49.3152029,6.9521214,,,,,,
1666388346,,Güchenbach,,49.3110404,6.9377689,,,,,,
581144019,,Güchenbach A,,49.3110124,6.9377984,,,,,,
1672766118,,Russenweg,,49.3107966,6.9403289,,,,,,
747039534,,Russenweg,,49.3108639,6.9403415,,,,,,
1672766117,,Ellerstraße,,49.3155554,6.9401287,,,,,,
440859385,,Ellerstraße,,49.3155543,6.9402794,,,,,,
269358641,,Riegelsberg Stumpen C,,49.3178389,6.9397992,,,,,,
1552225775,,Riegelsberg Stumpen C,,49.3178715,6.939804,,,,,,
1671007451,,Goethestraße,,49.3179649,6.9335803,,,,,,
901207702,,Goethestraße,,49.3179887,6.933615,,,,,,
1671007537,,Kurzenberg,,49.3203343,6.9281002,,,,,,
901207497,,Kurzenberg,,49.3203866,6.9281169,,,,,,
269358292,,Walpershofen Mitte,,49.3221731,6.9205475,,,,,,
1552225842,,Walpershofen Mitte,,49.3222161,6.9205675,,,,,,
1671007833,,Walpershofen Siedlung,,49.3278584,6.9150983,,,,,,
901207349,,Walpershofen Siedlung,,49.3278964,6.9152067,,,,,,
1671007563,,Niedersalbach Festplatz,,49.3334634,6.9121466,,,,,,
899737948,,Niedersalbach Festplatz,,49.333514,6.9122115,,,,,,
1671007558,,Niedersalbach Bürgerhaus,,49.3366703,6.9101622,,,,,,
1670627944,,Niedersalbach Bürgerhaus,,49.3366833,6.9102049,,,,,,
1671007595,,Niedersalbach Zur Ellertskrepp,,49.3387502,6.9163607,,,,,,
1670627973,,Niedersalbach Zur Ellertskrepp,,49.3387205,6.9163414,,,,,,
1671007459,,Heusweiler Albertstraße,,49.3395725,6.9226501,,,,,,
447810784,,Heusweiler Albertstraße,,49.3395325,6.9226275,,,,,,
1671007481,,Heusweiler Kirchstraße,,49.338265,6.9271749,,,,,,
455213007,,Heusweiler Kirchstraße,,49.3382276,6.9272029,,,,,,
1671007474,,Unnamed bus stop.,,49.3374837,6.9293162,,,,,,
3069970135,,Heusweiler Evangelische Kirche,,49.3374994,6.9290796,,,,,,
440851518,,Heusweiler Evangelische Kirche,,49.3374928,6.9290158,,,,,,
1671007486,,Heusweiler Markt B,,49.3369419,6.9303273,,,,,,
1670627922,,Heusweiler Markt B,,49.3369614,6.9302441,,,,,,
455213004,,Heusweiler Kirchstraße,,49.3382804,6.927177,,,,,,
1671007471,,Heusweiler Albertstraße,,49.3396171,6.9208509,,,,,,
447810785,,Heusweiler Albertstraße,,49.3396426,6.9208398,,,,,,
1671007601,,Niedersalbach Zur Ellertskrepp,,49.3388117,6.9152037,,,,,,
899737875,,Niedersalbach Zur Ellertskrepp,,49.3388673,6.9152032,,,,,,
1671007571,,Niedersalbach Walpershofer Straße,,49.3378494,6.9084221,,,,,,
899737750,,Niedersalbach Walpershofer Straße,,49.3378938,6.9084754,,,,,,
1671007625,,Obersalbach-Kurhof Schule,,49.3384309,6.8970717,,,,,,
1670627977,,Obersalbach-Kurhof Schule,,49.3384601,6.8970652,,,,,,
1671007645,,Unnamed bus stop.,,49.3425388,6.8896621,,,,,,
1670627992,,Obersalbach-Kurhof Schwarzenholzer Straße,,49.3424776,6.8896561,,,,,,
1671007607,,Obersalbach Kirche,,49.343687,6.8946032,,,,,,
1670627975,,Obersalbach Kirche,,49.3436839,6.8945415,,,,,,
280313120,,Obersalbach-Kurhof Schule,,49.3390887,6.8978083,,,,,,
1670627990,,Obersalbach-Kurhof Schule,,49.3390765,6.8977387,,,,,,
1670627958,,Niedersalbach Walpershofer Straße,,49.3378188,6.9083719,,,,,,
271344635,,Niedersalbach Bürgerhaus,,49.3371541,6.9093549,,,,,,
1670627950,,Niedersalbach Bürgerhaus,,49.3371864,6.9092988,,,,,,
1671007567,,Niedersalbach Festplatz,,49.3338637,6.9114465,,,,,,
1670627956,,Niedersalbach Festplatz,,49.3338273,6.9114089,,,,,,
1671007822,,Walpershofen Siedlung,,49.3275253,6.9154693,,,,,,
1670628009,,Walpershofen Siedlung,,49.3274956,6.9154139,,,,,,
1671007809,,Walpershofen Mitte,,49.3221127,6.9208028,,,,,,
1552225822,,Walpershofen Mitte,,49.3220888,6.9207935,,,,,,
1671007534,,Kurzenberg,,49.3203074,6.9282293,,,,,,
1552225647,,Kurzenberg,,49.3202639,6.9282117,,,,,,
1671007457,,Goethestraße,,49.31804,6.9333435,,,,,,
1552225590,,Goethestraße,,49.3180118,6.9333184,,,,,,
1667742514,,Riegelsberg Stumpen D,,49.317814,6.939596,,,,,,
1552225768,,Riegelsberg Stumpen D,,49.3177594,6.9396126,,,,,,
1672766116,,Ellerstraße,,49.315224,6.9401199,,,,,,
1672766115,,Ellerstraße,,49.3152257,6.9400304,,,,,,
747039504,,Russenweg,,49.3107135,6.940304,,,,,,
289735867,,Riegelsberg Rathaus,,49.3025733,6.9440605,,,,,,
1672844399,,Riegelsberg Post,,49.3072073,6.9449282,,,,,,
1552225738,,Riegelsberg Post,,49.3072339,6.9450019,,,,,,
262788501,,Walpershofen Salbacher Straße,,49.3243072,6.9200014,,,,,,
1671007813,,Walpershofen Salbacher Straße,,49.324263,6.9200451,,,,,,
1671007529,,Heusweiler Zur Neumühle,,49.3283351,6.924631,,,,,,
1671007508,,Heusweiler Zur Neumühle,,49.3282972,6.9246439,,,,,,
1671007667,,Paul-Theresia-Straße,,49.3292456,6.9279158,,,,,,
1671007663,,Paul-Theresia-Straße,,49.3292024,6.9279675,,,,,,
259449420,,Dilsburg Brücke,,49.331719,6.9317844,,,,,,
1671007448,,Dilsburg Brücke,,49.3317352,6.9318579,,,,,,
259449406,,Heusweiler Rathaus,,49.3355288,6.9307336,,,,,,
440854555,,Heusweiler Rathaus,,49.335573,6.9308629,,,,,,
440854554,,Heusweiler Rathaus,,49.3354924,6.9306446,,,,,,
440854556,,Dilsburg Brücke,,49.331717,6.9316991,,,,,,
1671007653,,Paul-Theresia-Straße,,49.3291463,6.9277526,,,,,,
899737912,,Paul-Theresia-Straße,,49.3291714,6.9277053,,,,,,
1671007525,,Heusweiler Zur Neumühle,,49.328295,6.9242068,,,,,,
899737723,,Heusweiler Zur Neumühle,,49.3283543,6.9243541,,,,,,
901207593,,Walpershofen Salbacher Straße,,49.3243407,6.919985,,,,,,
1666388478,,Köllner Straße,,49.2977203,6.9346116,,,,,,
1552225659,,Köllner Straße,,49.2977574,6.9346674,,,,,,
1676210372,,Pflugscheid Schule,,49.2979963,6.9295033,,,,,,
901207488,,Pflugscheid Schule,,49.2980703,6.9294979,,,,,,
1676210367,,Pflugscheid Humes,,49.296671,6.9256036,,,,,,
901207342,,Pflugscheid Humes,,49.2967253,6.9255542,,,,,,
262826394,,Engelfangen Aspenschacht,,49.2966788,6.9151556,,,,,,
899814361,,Engelfangen Aspenschacht,,49.2967212,6.9151852,,,,,,
262826399,,Engelfangen GH Meyer,,49.2977087,6.9106066,,,,,,
899814482,,Engelfangen GH Meyer,,49.2977328,6.9106196,,,,,,
262826407,,Engelfangen Bärenberg,,49.2983305,6.9067682,,,,,,
899814545,,Engelfangen Bärenberg,,49.2983407,6.9067121,,,,,,
1676210397,,Sommerberg Kirchstraße,,49.2963337,6.9061564,,,,,,
1676210396,,Sommerberg Kirchstraße,,49.2963301,6.9061138,,,,,,
1676210395,,Sommerberg Baptist-Himbert-Straße,,49.2946985,6.9046029,,,,,,
899814344,,Sommerberg Baptist-Himbert-Straße,,49.2947388,6.9045653,,,,,,
1676210393,,Sommerberg Abzweig Oberwies,,49.2932714,6.9011463,,,,,,
899814542,,Sommerberg Abzweig Oberwies,,49.2933056,6.9011925,,,,,,
1676210359,,Engelfangen GH Kläs,,49.2960297,6.8983645,,,,,,
1676210358,,Engelfangen GH Kläs,,49.2959963,6.8983937,,,,,,
1676210362,,Köllerbach Burg Uhrmachers Haus,,49.2987943,6.8975278,,,,,,
1676210361,,Köllerbach Burg Uhrmachers Haus,,49.2987719,6.8976286,,,,,,
1676210363,,Köllerbach Trimmtreff,,49.2947851,6.8932896,,,,,,
1676210364,,Köllerbach Trimmtreff,,49.294811,6.8931729,,,,,,
1676210387,,Püttlingen Köllertalstraße,,49.2916556,6.8890845,,,,,,
899814425,,Püttlingen Köllertalstraße,,49.2916519,6.889048,,,,,,
264121936,,Unnamed bus stop.,,49.2890853,6.8847421,,,,,,
3709123626,,A,,49.289518,6.8837079,,,,,,
291891207,,ZOB,,49.2894664,6.8835614,,,,,,
1676210384,,Püttlingen GH Mai,,49.294567,6.882428,,,,,,
899814347,,Püttlingen GH Mai,,49.2946028,6.8825028,,,,,,
1676210391,,Püttlingen Zum Birkenbruch,,49.2943751,6.8765599,,,,,,
899814492,,Püttlingen Zum Birkenbruch,,49.294403,6.8765493,,,,,,
2099873382,,B,,49.2895069,6.8835767,,,,,,
1676210389,,Püttlingen Völklinger Straße,,49.2826498,6.8783496,,,,,,
899814400,,Püttlingen Völklinger Straße,,49.2826564,6.8783164,,,,,,
1676210385,,Püttlingen Klinik,,49.2776543,6.8706917,,,,,,
899814379,,Püttlingen Klinik,,49.2776206,6.8704838,,,,,,
264128355,,Püttlingen Köllner Straße,,49.2905202,6.8826889,,,,,,
899814439,,Püttlingen Köllner Straße,,49.290493,6.8827284,,,,,,
1676210383,,Püttlingen Elmer Weg,,49.2881263,6.8764559,,,,,,
899814393,,Püttlingen Elmer Weg,,49.2881057,6.8764417,,,,,,
264121153,,Püttlingen Rathausplatz,,49.2882992,6.882833,,,,,,
291890926,,Püttlingen Rathausplatz,,49.288225,6.8828589,,,,,,
262536625,,Püttlingen GH Gauer,,49.2888186,6.8862764,,,,,,
291891244,,Püttlingen GH Gauer,,49.2887842,6.8863494,,,,,,
1676210386,,Püttlingen Köllertalstraße,,49.2916174,6.8891665,,,,,,
1676210365,,Köllerbach Trimmtreff,,49.2954426,6.8940545,,,,,,
899814369,,Köllerbach Trimmtreff,,49.2953836,6.8941299,,,,,,
899814454,,Köllerbach Burg Uhrmachers Haus,,49.2988105,6.8974717,,,,,,
899814431,,Engelfangen GH Kläs,,49.2960592,6.898307,,,,,,
1676210392,,Sommerberg Abzweig Oberwies,,49.2932451,6.9011134,,,,,,
1676210394,,Sommerberg Baptist-Himbert-Straße,,49.2946712,6.9046496,,,,,,
899814390,,Sommerberg Kirchstraße,,49.2963234,6.9062091,,,,,,
1676210357,,Engelfangen Bärenberg,,49.2983184,6.9068176,,,,,,
1676210360,,Engelfangen GH Meyer,,49.2976633,6.9105675,,,,,,
1676210356,,Engelfangen Aspenschacht,,49.2966359,6.9151282,,,,,,
1676210366,,Pflugscheid Humes,,49.2965828,6.9254073,,,,,,
1552225688,,Pflugscheid Humes,,49.2965583,6.9254463,,,,,,
262826377,,Pflugscheid Schule,,49.2979334,6.9288736,,,,,,
1552225695,,Pflugscheid Schule,,49.297875,6.9289133,,,,,,
1552225653,,Köllner Straße,,49.2976888,6.9345521,,,,,,
771482741,,St.Avolder Straße,,49.276292,7.0304748,,,,,,
490262523,,Dudweiler Bahnhof,,49.2771159,7.027519,,,,,,
898125844,,Am Schlachthaus,,49.2749762,7.0242381,,,,,,
898125747,,Herrensohr Römerstraße,,49.2746198,7.0203557,,,,,,
898125854,,Herrensohr Markt,,49.2735034,7.0148788,,,,,,
898125709,,Herrensohr Kirche,,49.2743609,7.010842,,,,,,
898125903,,Herrensohr Bergstraße,,49.2719685,7.014302,,,,,,
898125801,,Herrensohr Friedhofstraße,,49.2693784,7.0096028,,,,,,
898125675,,Jägersfreude St.Johanner Straße,,49.266565,7.0072907,,,,,,
925575977,,Jägersfreude Blechhammerstraße,,49.2648093,7.0055254,,,,,,
368397858,,Jägersfreude Kirche,,49.2620795,7.0038355,,,,,,
368398018,,Achenbachstraße,,49.2589003,7.0025042,,,,,,
930845240,,EKZ Im Sauerbrod,,49.2492865,7.0061141,,,,,,
811479553,,Im Sauerbrod,,49.2447963,7.0103448,,,,,,
343139032,,Am Homburg,,49.2475552,7.012388,,,,,,
732931064,,Gaußstraße,,49.2479914,7.0103167,,,,,,
1706042511,,Wallotstraße,,49.2428144,7.0073032,,,,,,
274917267,,Bahnhofstraße,,49.2376449,6.9908315,,,,,,
930863807,,Ludwigsberg,,49.2432535,6.9824204,,,,,,
930877717,,Sittersweg,,49.2450043,6.9860522,,,,,,
930877617,,An der Schlucht,,49.2468603,6.9891842,,,,,,
930877652,,Rodenhof Kirche,,49.2482756,6.9913882,,,,,,
5308747502,,Ottweilerstraße,,49.2493518,6.9910087,,,,,,
930877535,,Türkismühler Straße,,49.2516487,6.9946003,,,,,,
899562507,,Lehárstraße,,49.2494009,6.996351,,,,,,
899562477,,Neunkircher Straße,,49.2475449,6.995836,,,,,,
930877488,,Grülingsstraße,,49.2451396,6.993645,,,,,,
899562434,,Rodenhof Ausstieg,,49.2447193,6.9975849,,,,,,
899562397,,Rodenhof Kálmánstraße,,49.2460302,6.9996386,,,,,,
2188886051,,Ottweiler (Saar),,49.4023152,7.1663268,,,,,,
446725722,,Ottweiler-Wingertsweiher,,49.4109437,7.1816773,,,,,,
446725755,,Fürth (Ostertal),,49.4267477,7.2239261,,,,,,
2188908969,,Dörrenbach,,49.4335566,7.2309834,,,,,,
2188908972,,Werschweiler,,49.4476624,7.2332603,,,,,,
2418119103,,Niederkirchen,,49.4641816,7.2484007,,,,,,
2419115715,,Marth,,49.4746893,7.2544943,,,,,,
2408291236,,Osterbrücken,,49.4962029,7.2637233,,,,,,
446725855,,Oberkirchen Süd,,49.5240063,7.2731761,,,,,,
2327098766,,Schwarzerden,,49.5334179,7.2924381,,,,,,
899801651,,Rilchingen-Hanweiler In der Lach,,49.1213432,7.0498791,,,,,,
1887830514,,Dudweiler Markt,,49.2754988,7.0357232,,,,,,
368320468,,Dudweiler Bürgerhaus,,49.273852,7.0402875,,,,,,
490232024,,Beim Weisenstein,,49.2714117,7.0415638,,,,,,
365740834,,Hermann-Löns-Straße,,49.2677501,7.0457748,,,,,,
335600560,,Guckelsberg,,49.2646629,7.0498231,,,,,,
5299929927,,Universität Botanischer Garten,,49.2547541,7.0374707,,,,,,
5299929925,,Universität Campus,,49.2547205,7.0407447,,,,,,
5299929923,,Universität Mensa,,49.2562752,7.0436771,,,,,,
5330061358,,Universität Busterminal E,,49.2577605,7.048133,,,,,,
732406911,,Stuhlsatzenhaus A,,49.2591407,7.0519294,,,,,,
315270311,,Bartenberg,,49.2513078,7.0547536,,,,,,
271344449,,Scheidt Im Flürchen,,49.2475811,7.0564912,,,,,,
277740746,,Scheidt Bahnhof,,49.2460037,7.0585743,,,,,,
297460784,,Scheidt Bahnhof,,49.2447098,7.0589337,,,,,,
297460782,,Hammerweg,,49.2423845,7.0584017,,,,,,
297460777,,Mockental,,49.2362023,7.0553056,,,,,,
297460776,,Schafbrücke Bahnhof,,49.2264073,7.0484989,,,,,,
3455247898,,Neuscheidt,,49.225282,7.0436451,,,,,,
906649798,,Walsheim Im Pfarrgarten,,49.1539679,7.2323631,,,,,,
906649795,,Walsheim Brauereistraße,,49.1514921,7.2296416,,,,,,
906649840,,Gersheim Am Erbhof,,49.1498238,7.2136295,,,,,,
906649802,,Gersheim Busbahnhof,,49.1489669,7.2096711,,,,,,
906649774,,Gersheim Industriegebiet,,49.1539903,7.2105538,,,,,,
906649814,,Herbitzheim Kremelstraße,,49.1675406,7.2198083,,,,,,
279339798,,Rubenheim Hirtengarten,,49.1725926,7.2088227,,,,,,
906649839,,Rubenheim Ortsmitte,,49.1751926,7.2073802,,,,,,
906649786,,Rubenheim Abzweig Wiesenstraße,,49.1793895,7.207337,,,,,,
906649781,,Rubenheim Katharinenhof,,49.1884057,7.1949858,,,,,,
906937295,,Busbahnhof,,49.1956541,7.1861938,,,,,,
906937536,,Erfweiler Weiherstraße,,49.1954083,7.180594,,,,,,
597666318,,Unnamed bus stop.,,49.1966222,7.1794593,,,,,,
906937352,,Erfweiler Auf dem Hüwel,,49.1969724,7.1785624,,,,,,
906937497,,Ehlingen Rubenheimer Straße,,49.2011884,7.1743285,,,,,,
906936540,,Ehlingen Heidehof,,49.2084113,7.1775438,,,,,,
906645245,,Aßweiler In den Obstgärten,,49.2135208,7.1821894,,,,,,
848836981,,Aßweiler Busbahnhof,,49.2167205,7.1866015,,,,,,
471619154,,Herbitzheim Bürgerhaus,,49.167655,7.2177904,,,,,,
899737938,,"Kreuzung, Maybach Friedrichsthal",,49.3234113,7.0672197,,,,,,
2964204956,,"Gewerbegebiet, Maybach Friedrichsthal",,49.3216146,7.0684821,,,,,,
2964204947,,"Gewerbegebiet, Maybach Friedrichsthal",,49.3214308,7.0691658,,,,,,
3922543089,,Homburg (Saar) Hauptbahnhof,,49.3278179,7.3377291,,,,,,
906646007,,Rondell,,49.3246033,7.3400154,,,,,,
906646011,,Scheffelplatz,,49.3230819,7.3369567,,,,,,
955293189,,Talstraße,,49.3202934,7.3359343,,,,,,
3922458403,,Zweibrücker Tor,,49.3191118,7.3373259,,,,,,
906645759,,Amtsgericht,,49.3181129,7.3388824,,,,,,
3909732858,,Steinhübel,,49.310887,7.3340333,,,,,,
535901,,Birkensiedlung,,49.3051299,7.3306772,,,,,,
687083851,,Schwarzenbach Friedhof,,49.2934928,7.3203948,,,,,,
3068947304,,Jugenddorf,,49.2897196,7.3185823,,,,,,
906645641,,Bierbacher Straße,,49.2845906,7.3159991,,,,,,
1372093225,,Römermuseum,,49.282245,7.315736,,,,,,
3068948196,,Wustental,,49.2761317,7.3130467,,,,,,
906645892,,Krummrechstraße,,49.2715382,7.3153788,,,,,,
565395150,,Dorfplatz,,49.2690477,7.3196886,,,,,,
906645654,,Einöd Bahnhof,,49.2654166,7.3256535,,,,,,
906645536,,Neunmorgenstraße,,49.2627288,7.3300852,,,,,,
343728024,,Kaplaneihof,,49.2603072,7.3339665,,,,,,
331287272,,John Deere,,49.2580675,7.3376738,,,,,,
1372092909,,Wustental,,49.2748373,7.3131264,,,,,,
687083869,,Römermuseum,,49.2821792,7.3159655,,,,,,
687083521,,Jugenddorf,,49.2887337,7.3183793,,,,,,
3218553993,,Schwarzenbach Friedhof,,49.2931043,7.3204793,,,,,,
3068947176,,Zweibrücker Tor,,49.3193267,7.3368418,,,,,,
955293187,,Homburg Talstraße,,49.320517,7.3367402,,,,,,
906645811,,Homburg Christian-Weber-Platz,,49.3224664,7.3400583,,,,,,
906645738,,Homburg Enklerplatz,,49.3235653,7.3422898,,,,,,
3922543091,,Homburg (Saar) Hauptbahnhof,,49.3276525,7.3380195,,,,,,
619232437,,Bürgerhaus,,49.3848633,7.3316771,,,,,,
619230369,,Waldmohr Süd,,49.3808761,7.3295246,,,,,,
906645488,,Ortsmitte,,49.3720871,7.3247845,,,,,,
960483075,,Lambert,,49.3671592,7.3234085,,,,,,
906645606,,Erbach Turnhalle,,49.3508234,7.3309662,,,,,,
906645417,,Erbach Fabrikstraße,,49.3464187,7.3331864,,,,,,
906645377,,Abzweig Berliner Straße,,49.3413116,7.3347075,,,,,,
960478758,,Buschstraße,,49.3394018,7.3343364,,,,,,
960478756,,Langenäckerstraße,,49.336107,7.3350219,,,,,,
960478755,,Karolinenstraße,,49.3333248,7.3362114,,,,,,
612879870,,Maxstraße,,49.3311295,7.3370911,,,,,,
906645629,,Schwinn,,49.3247165,7.3294206,,,,,,
906645940,,Saar-Nadellager,,49.3315055,7.3327281,,,,,,
906645665,,Langenäckerstraße,,49.3355465,7.3354268,,,,,,
906645818,,Buschstraße,,49.3394043,7.3345101,,,,,,
960478750,,Abzweig Berliner Straße,,49.3411278,7.3347376,,,,,,
906645682,,Lambert,,49.3658059,7.3243045,,,,,,
960483076,,Ortsmitte,,49.3721746,7.3250813,,,,,,
619230214,,Waldmohr Süd,,49.3803475,7.3294597,,,,,,
619232440,,Bürgerhaus,,49.3848433,7.3319196,,,,,,
842508278,,Maxstraße,,49.3308783,7.3374073,,,,,,
906645557,,Karolinenstraße,,49.3330438,7.3364786,,,,,,
906645336,,Mühlgraben,,49.3258435,7.3421926,,,,,,
906645416,,Eisenwerk,,49.3308649,7.3463644,,,,,,
3072610281,,Wäschefabrik,,49.3397882,7.3557673,,,,,,
906645926,,Bruchhof Gewerbegebiet,,49.3440006,7.3597767,,,,,,
906645568,,Bruchhof Lilienstraße,,49.3469401,7.3630218,,,,,,
906645750,,Bruchhof Bechhofer Straße,,49.3509043,7.3683345,,,,,,
906645642,,Bruchhof Eichelscheid,,49.3600014,7.3808115,,,,,,
1371143265,,Zoll,,49.3520693,7.3960675,,,,,,
1371136754,,Scheidhauer,,49.350806,7.405259,,,,,,
1371135960,,"Bechhofen, Brunnen",,49.3495924,7.4088755,,,,,,
1371136323,,"Bechhofen, Lamsborner Straße",,49.3545251,7.4090326,,,,,,
906645672,,Wäschefabrik,,49.3400476,7.3556877,,,,,,
3922543093,,Homburg (Saar) Hauptbahnhof,,49.3277119,7.3378997,,,,,,
684358430,,Hostenbach Provinzialstraße,,49.2546648,6.8158095,,,,,,
3414686158,,Schaffhausen Kirchstraße,,49.2561994,6.8142336,,,,,,
3414686156,,Hostenbach Provinzialstraße,,49.2542062,6.816471,,,,,,
906550111,,Bisten Neues Rathaus,,49.2503147,6.6971129,,,,,,
906550653,,Überherrn Bonifatiusstraße,,49.2468104,6.6974361,,,,,,
906550424,,Überherrn Bahnhof,,49.2436306,6.6981657,,,,,,
949694827,,Überherrn Bahnhof,,49.2436096,6.6978868,,,,,,
906550222,,Überherrn Alleestraße,,49.2398972,6.6991206,,,,,,
949692751,,Überherrn Schallerweg,,49.2370449,6.6996842,,,,,,
906550711,,Überherrn Schallerweg,,49.2370252,6.6994961,,,,,,
949662526,,Überherrn Albrecht-Dürer-Straße,,49.2374761,6.7020056,,,,,,
906550623,,Überherrn Albrecht-Dürer-Straße,,49.2375766,6.7018516,,,,,,
906550053,,Überherrn Schillerstraße,,49.2395006,6.7054403,,,,,,
949662530,,Überherrn Schillerstraße,,49.2393508,6.7057939,,,,,,
1372092884,,Differten Überherrner Straße 92,,49.246639,6.76494,,,,,,
1372092880,,Differten EDEKA,,49.2428649,6.7745685,,,,,,
906550354,,Differten Abzweig Bahnhof,,49.2417112,6.7792859,,,,,,
684358400,,Differten Abel,,49.2409136,6.784097,,,,,,
684358405,,Werbeln Dorfkreuz,,49.2455229,6.7919317,,,,,,
684358407,,Werbeln Bahnhof,,49.2486789,6.7936352,,,,,,
684358410,,Schaffhausen Am Rothenberg,,49.2547484,6.8013621,,,,,,
684358414,,Schaffhausen Kreuzgartenstraße,,49.2577129,6.8080072,,,,,,
3414686159,,Schaffhausen Kreuzgartenstraße,,49.2578544,6.8079086,,,,,,
684358420,,Schaffhausen Kirchstraße,,49.256459,6.8142432,,,,,,
668141797,,Hostenbach Sitters,,49.2520451,6.8184853,,,,,,
668141795,,Hostenbach Sitters,,49.2521167,6.8186395,,,,,,
3446163752,,Schaffhausen Am Rothenberg,,49.2548023,6.8012667,,,,,,
3446396252,,Schaffhausen Sengsterstraße,,49.2590114,6.8110825,,,,,,
3446396254,,Schaffhausen Sengsterstraße,,49.2590459,6.8106544,,,,,,
2958284055,,Ensdorf Viermännerwohnung,,49.3040877,6.7958767,,,,,,
2958368508,,Sprengen Ober der Schäferei,,49.3075531,6.8477331,,,,,,
2958368510,,Sprengen Ober der Schäferei,,49.30738,6.8484747,,,,,,
2958366605,,Sprengen Ort,,49.3060214,6.8522127,,,,,,
3314870903,,Saarlouis Kreuzstraße,,49.3078312,6.7562691,,,,,,
1825299575,,Lisdorf Holzmühler Str.,,49.3026631,6.7579784,,,,,,
906492070,,Holzmühle Linde,,49.3004943,6.7429875,,,,,,
3314804550,,Lisdorf Holzmühle Linde,,49.3003912,6.7429929,,,,,,
906491789,,Holzmühle Warndtstraße,,49.299814,6.7456456,,,,,,
281432142,,Saarlouis Rosenstraße,,49.3039284,6.7454012,,,,,,
906491791,,Tulpenweg,,49.3061924,6.7452888,,,,,,
281432170,,Saarlouis Schwarzbachstraße,,49.3080969,6.7447041,,,,,,
3317008587,,Saarlouis Supermarkt,,49.3090269,6.7429347,,,,,,
3317013480,,Saarlouis Vogelsang Dreieck,,49.3092997,6.7399763,,,,,,
906492045,,Saarlouis Wachtelweg,,49.307509,6.7369212,,,,,,
3317048724,,Saarlouis Falkenweg,,49.3090059,6.7352356,,,,,,
906491697,,Saarlouis Industriestraße,,49.3105762,6.7379606,,,,,,
3317068416,,Robert-Koch-Straße,,49.3120766,6.7409004,,,,,,
3317113910,,Saarlouis Kaserne,,49.3135634,6.7412493,,,,,,
3317113911,,Saarlouis Kaserne,,49.3139074,6.7416809,,,,,,
853170991,,DRK-Krankenhaus,,49.3144128,6.7445923,,,,,,
3317141242,,Saarlouis Postgässchen,,49.3141837,6.7485566,,,,,,
877032530,,Landratsamt,,49.3125715,6.7490475,,,,,,
740102880,,Saarlouis ZOB Kleiner Markt F,,49.3122129,6.7525856,,,,,,
740073067,,Saarlouis ZOB Kleiner Markt A,,49.3131222,6.7534506,,,,,,
740102885,,Saarlouis ZOB Kleiner Markt G,,49.3121534,6.7525964,,,,,,
853171011,,Landratsamt,,49.3128256,6.7491594,,,,,,
853171014,,Saarlouis Postgässchen,,49.3139837,6.7488977,,,,,,
3317123680,,DRK-Krankenhaus,,49.3145229,6.7453707,,,,,,
906491767,,Saarlouis Kaserne,,49.3139284,6.7409407,,,,,,
906492015,,Robert-Koch-Straße,,49.3124303,6.7411726,,,,,,
3317048725,,Saarlouis Industriestraße,,49.31059,6.7377358,,,,,,
906492154,,Saarlouis Falkenweg,,49.3092212,6.7350958,,,,,,
3317021047,,Saarlouis Wachtelweg,,49.3074076,6.7369373,,,,,,
281432192,,Saarlouis Vogelsang Dreieck,,49.3091569,6.7398709,,,,,,
906492099,,Saarlouis Supermarkt,,49.3089727,6.7429964,,,,,,
3314840616,,Saarlouis Schwarzbachstraße,,49.3084868,6.7444064,,,,,,
955216416,,Saarlouis Schwarzbachstraße,,49.3081004,6.7443527,,,,,,
3314840615,,Saarlouis Tulpenweg,,49.3060857,6.7452137,,,,,,
281432133,,Saarlouis Rosenstraße,,49.3039424,6.7453342,,,,,,
906491859,,Lisdorf Holzmühler Straße,,49.3026159,6.7581876,,,,,,
1827555071,,Lisdorf Hopfenblüte,,49.3050049,6.7577209,,,,,,
906491835,,Saarlouis Kreuzstraße,,49.3081686,6.7562886,,,,,,
663579840,,Völklingen Neues Rathaus,,49.2511736,6.8603375,,,,,,
2714673755,,Völklingen Stadtbad,,49.2499687,6.8590556,,,,,,
262829490,,Heidstock Gerhardstraße,,49.2503474,6.8631747,,,,,,
2714673705,,Heidstock Gerhardstraße,,49.2504306,6.8638288,,,,,,
2714673707,,Heidstock Volksgarten,,49.2516066,6.8681606,,,,,,
262829498,,Heidstock Volksgarten,,49.2516951,6.8688824,,,,,,
4316970583,,Kleinblittersdorf Bahnhof,,49.1574558,7.0335852,,,,,,
4316970584,,Kleinblittersdorf Markt,,49.1556105,7.0355217,,,,,,
899801692,,Kleinblittersdorf Markt,,49.1572559,7.0347277,,,,,,
4316961839,,Kleinblittersdorf Elsässerstraße,,49.1529796,7.0374317,,,,,,
517523490,,Auersmacher Bahnhof,,49.1436097,7.0456777,,,,,,
517523492,,Auersmacher Bahnhof,,49.1437717,7.0457734,,,,,,
4317540923,,Rilchingen-Hanweiler Therme,,49.1285449,7.0531469,,,,,,
4316933910,,Rilchingen-Hanweiler Einkaufsmärkte,,49.1203375,7.0596355,,,,,,
4316933911,,Rilchingen-Hanweiler Einkaufsmärkte,,49.1202682,7.0603499,,,,,,
4316952912,,Auersmacher Kapelle,,49.1461553,7.0477965,,,,,,
4316952913,,Auersmacher Kapelle,,49.1462305,7.04796,,,,,,
4316952911,,Auersmacher Auf dem Bies,,49.1437537,7.050708,,,,,,
4316952910,,Auersmacher Auf dem Bies,,49.1438577,7.0508825,,,,,,
4316945480,,Auersmacher Dorfplatz,,49.1418208,7.056348,,,,,,
4316945481,,Auersmacher Dorfplatz,,49.1418704,7.0564701,,,,,,
4316945479,,Auersmacher Vogesenstraße,,49.1386543,7.0577744,,,,,,
102909705,,Auersmacher Vogesenstraße,,49.1386714,7.0578975,,,,,,
4316945478,,Sitterswald Ellwiesergarten,,49.1312099,7.0660595,,,,,,
899801695,,Sitterswald Ellwiesergarten,,49.1312624,7.0661598,,,,,,
899801679,,Sitterswald Nauwieser Straße,,49.1309009,7.0688722,,,,,,
4317022010,,Sitterswald Nauwieser Straße,,49.1307938,7.0687088,,,,,,
4317022009,,Sitterswald Bliesgersweiler Mühle,,49.1513823,7.0806799,,,,,,
899801647,,Bliesransbach Abzweigung,,49.1582264,7.0901751,,,,,,
899801685,,Bliesransbach Markt,,49.164899,7.0888799,,,,,,
906937154,,Bliesmengen-Bolchen Uhrigsmühle,,49.1562919,7.1015026,,,,,,
957892892,,Bliesmengen-Bolchen Wingert,,49.1536233,7.1110827,,,,,,
906937325,,Bliesmengen-Bolchen Wingert,,49.1542668,7.1094409,,,,,,
906937014,,Bliesmengen-Bolchen Kirche,,49.1519922,7.1150131,,,,,,
957892832,,Bliesmengen-Bolchen Kirche,,49.1522612,7.1149833,,,,,,
276689862,,Habkirchen Zollhäuser,,49.1400711,7.1295719,,,,,,
276689861,,Habkirchen Zollhäuser,,49.1401322,7.1298004,,,,,,
1372092974,,Habkirchen Hofgut,,49.136467,7.132877,,,,,,
906937203,,Bebelsheim Parallelstraße,,49.1631104,7.1588016,,,,,,
906936992,,Bebelsheim Feuerwehr,,49.1653213,7.1616087,,,,,,
906937070,,Bebelsheim Magerbacher Straße,,49.1707529,7.1616455,,,,,,
906936588,,Wittersheim Gartenstraße,,49.1821312,7.1632807,,,,,,
906937442,,Wittersheim Mühle,,49.1860235,7.1619682,,,,,,
906936712,,Ehlingen Ehlinger Dell,,49.2030854,7.1735839,,,,,,
906936914,,Ormesheim Adenauerstraße,,49.1987882,7.1516576,,,,,,
660613891,,Ormesheim Buchenhof,,49.2043576,7.1639743,,,,,,
660613882,,Ormesheim Buchenhof,,49.204078,7.1631864,,,,,,
930726819,,Ormesheim Rathaus,,49.1967071,7.1426918,,,,,,
848836982,,Aßweiler Busbahnhof D,,49.2167354,7.1864304,,,,,,
3465920804,,Aßweiler Busbahnhof E,,49.2168094,7.1864433,,,,,,
906645657,,Aßweiler Aldi,,49.216763,7.1915587,,,,,,
292272790,,Biesingen Ortsmitte,,49.218291,7.2019262,,,,,,
1300020305,,Biesingen Ortsmitte,,49.2180275,7.2008432,,,,,,
417268636,,Biesingen Münchwiesenstraße,,49.2201094,7.2113343,,,,,,
906645239,,Biesingen Eschenhof,,49.2207649,7.2241114,,,,,,
3451383659,,Blieskastel Tivoli,,49.2398148,7.259682,,,,,,
906645624,,Blieskastel Raintal,,49.2427637,7.2596995,,,,,,
906645566,,Lautzkirchen Zum Sportplatz,,49.245847,7.2590972,,,,,,
906645887,,Lautzkirchen Bahnhof,,49.2489932,7.2571825,,,,,,
906645349,,Lautzkirchen Homburger Straße,,49.2502878,7.2568498,,,,,,
5037584255,,Bierbach Friedhof,,49.2619845,7.2743824,,,,,,
906645589,,Bierbach Bahnhof,,49.2627715,7.280861,,,,,,
906645643,,Bierbach Am Forsthaus,,49.2647154,7.2892651,,,,,,
906645310,,Bierbach Hechlertalstraße,,49.2674572,7.2947486,,,,,,
906645748,,Wörschweiler Gutenbrunnen,,49.2774083,7.3034232,,,,,,
906645238,,Wörschweiler Sportplatz,,49.2804737,7.3067312,,,,,,
906645360,,Wörschweiler Kreuzung,,49.2843389,7.3111269,,,,,,
771234441,,Beeden An der Kiesgrube,,49.3048329,7.3083177,,,,,,
906645876,,Beeden An der Kiesgrube,,49.3048616,7.308035,,,,,,
906645348,,Beeden Ortsmitte,,49.307486,7.3114425,,,,,,
906645719,,Beeden Ortsmitte,,49.3074466,7.3111356,,,,,,
2242982553,,Beeden Schule,,49.310447,7.3170713,,,,,,
906645220,,Beeden Pirminiusstraße,,49.3136255,7.3194617,,,,,,
906645615,,Beeden Abzweig Bliesberger Straße,,49.3166755,7.3212608,,,,,,
2242985906,,Beeden Abzweig Bliesberger Straße,,49.3160534,7.3205321,,,,,,
906645821,,Homburg Händelstraße,,49.3189484,7.3275925,,,,,,
906645403,,Homburg Forum,,49.319389,7.3323132,,,,,,
3922543092,,Homburg (Saar) Hauptbahnhof,,49.3277866,7.3377773,,,,,,
1570022569,,Heusweiler Markt F,,49.3368638,6.9302738,,,,,,
279450238,,Heusweiler Markt A,,49.3370809,6.93042,,,,,,
279450230,,Heusweiler Markt C,,49.3365896,6.9298073,,,,,,
1671007495,,Heusweiler Markt D,,49.3365527,6.9297549,,,,,,
1671007500,,Heusweiler Markt E,,49.3363675,6.929497,,,,,,
315894071,,Lebach-Jabach,,49.4072907,6.8918153,,,,,,
1565379956,,Lebach,,49.4083077,6.9069834,,,,,,
1558300733,,Lebach Süd,,49.4025337,6.919127,,,,,,
3124477270,,Landsweiler Nord,,49.3914842,6.9265635,,,,,,
602842285,,Landsweiler Süd,,49.3871572,6.9289381,,,,,,
3124477269,,Eiweiler Nord,,49.3623264,6.9333205,,,,,,
1558270566,,Eiweiler,,49.3565052,6.934859,,,,,,
1558270623,,Kirschhof,,49.3497513,6.9364089,,,,,,
693219331,,In der Hommersbach,,49.3448952,6.9372409,,,,,,
2923956591,,Heusweiler Markt,,49.3370757,6.9301473,,,,,,
2923956592,,Heusweiler Schulzentrum,,49.3329905,6.9248458,,,,,,
693084885,,Walpershofen Mühlenstraße,,49.3265808,6.9222315,,,,,,
1509069720,,Walpershofen Mitte,,49.3217746,6.9179234,,,,,,
476918608,,Walpershofen/Etzenhofen,,49.3178655,6.9144318,,,,,,
476918594,,Gisorsstraße,,49.3143849,6.932624,,,,,,
476918524,,Güchenbach,,49.3113452,6.9376131,,,,,,
476918538,,Riegelsberghalle,,49.3082292,6.9399949,,,,,,
476918552,,Riegelsberg Post,,49.3077205,6.9443999,,,,,,
476918563,,Riegelsberg Rathaus,,49.3010117,6.9454045,,,,,,
476918575,,Wolfskaulstraße,,49.2968221,6.948844,,,,,,
440859399,,Riegelsberg Süd,,49.2943167,6.953314,,,,,,
2958166857,,Heinrichshaus,,49.2743566,6.9611512,,,,,,
289742444,,Siedlerheim,,49.2559339,6.9602158,,,,,,
275923746,,Rastpfuhl,,49.2503939,6.9634523,,,,,,
440863669,,Pariser Platz,,49.2470446,6.967351,,,,,,
935394792,,Cottbuser Platz,,49.2428676,6.972288,,,,,,
3453718138,,Ludwigstraße,,49.241026,6.9786832,,,,,,
2039805798,,Trierer Straße,,49.2404503,6.9854035,,,,,,
5190990318,,"Hauptbahnhof S, Saarbrücken",,49.2400262,6.9905778,,,,,,
1670310386,,Kaiserstraße,,49.2374909,6.9942281,,,,,,
1670310316,,Johanneskirche,,49.235409,6.9967532,,,,,,
3452189399,,Landwehrplatz,,49.233169,7.0013293,,,,,,
1670334262,,Uhlandstraße,,49.2311443,7.0074201,,,,,,
1327601891,,Hellwigstraße,,49.2291127,7.0119824,,,,,,
2924561671,,Kieselhumes,,49.2277657,7.0186336,,,,,,
262628515,,Römerkastell,,49.226811,7.0218444,,,,,,
1269494682,,Saarbrücken-Brebach,,49.2163708,7.0287843,,,,,,
276389544,,Saarbrücken-Güdingen,,49.1975309,7.0307697,,,,,,
4041303347,,Saarbrücken - Bübingen,,49.1790307,7.0343245,,,,,,
4045413559,,Kleinblittersdorf Bf,,49.1577695,7.0334628,,,,,,
5054939525,,Auersmacher,,49.1431254,7.0448192,,,,,,
292265301,,Hanweiler - Bad Rilchingen,,49.1187578,7.0500718,,,,,,
5054939526,,Auersmacher,,49.1434612,7.0447458,,,,,,
4045413558,,Kleinblittersdorf Bf,,49.1580816,7.0335958,,,,,,
4041303382,,Saarbrücken - Bübingen,,49.1801853,7.0353325,,,,,,
3456469726,,Saarbrücken-Güdingen,,49.1979532,7.030812,,,,,,
275943675,,Saarbrücken-Brebach,,49.2168487,7.0288026,,,,,,
1419920613,,Römerkastell,,49.2270873,7.0210881,,,,,,
2924561672,,Kieselhumes,,49.2284869,7.0161157,,,,,,
3453838416,,Hellwigstraße,,49.2292685,7.0110709,,,,,,
507394092,,Uhlandstraße,,49.231253,7.0070214,,,,,,
262667846,,Landwehrplatz,,49.2335161,7.0006082,,,,,,
354581958,,Johanneskirche,,49.236017,6.9963377,,,,,,
278999743,,Kaiserstraße,,49.2377936,6.9939511,,,,,,
3453784092,,"Hauptbahnhof S, Saarbrücken",,49.2401824,6.9898045,,,,,,
276173257,,Trierer Straße,,49.2403747,6.9848368,,,,,,
262881719,,Ludwigstraße,,49.2411594,6.9784324,,,,,,
3456469725,,Cottbuser Platz,,49.2428798,6.9723209,,,,,,
3456469727,,Pariser Platz,,49.247066,6.9674005,,,,,,
3456469728,,Rastpfuhl,,49.2504092,6.9634969,,,,,,
3456469730,,Siedlerheim,,49.255946,6.9603096,,,,,,
1423973919,,Heinrichshaus,,49.2747948,6.9613525,,,,,,
3456469729,,Riegelsberg Süd,,49.2943204,6.9533637,,,,,,
2921237525,,Güchenbach,,49.3113755,6.9376699,,,,,,
2921237524,,Gisorsstraße,,49.3144166,6.9326255,,,,,,
2921238238,,Walpershofen/Etzenhofen,,49.3179019,6.914445,,,,,,
2921238237,,Walpershofen Mitte,,49.3217316,6.9180075,,,,,,
693084906,,Heusweiler Schulzentrum,,49.3329719,6.9248711,,,,,,
1509120248,,Heusweiler Markt,,49.3370499,6.930183,,,,,,
1558270564,,Eiweiler Nord,,49.3623464,6.9333814,,,,,,
1558299685,,Landsweiler Nord,,49.3915094,6.9266054,,,,,,
2124345347,,Lebach,,49.4083499,6.9067701,,,,,,
534271309,,Lebach Gymnasium,,49.4024974,6.8951059,,,,,,
906491723,,Lebach Katasteramt,,49.4070332,6.9022239,,,,,,
906492180,,Lebach Kaserne,,49.4064022,6.9104532,,,,,,
906491872,,Steinbach Brücke,,49.4595034,6.9626407,,,,,,
906491996,,Steinbach Schule,,49.4609237,6.9580921,,,,,,
906491702,,Steinbach Kirche,,49.4628474,6.959045,,,,,,
906491695,,Dörsdorf Niederwiesstraße,,49.4713063,6.9618856,,,,,,
906492152,,Dörsdorf Kirche,,49.4729963,6.9623261,,,,,,
906492043,,Dörsdorf Gerstenfeld,,49.4756104,6.9573301,,,,,,
907426772,,Scheuern Kirche,,49.4849873,6.94276,,,,,,
907426434,,Scheuern Kirsch,,49.4855036,6.9390284,,,,,,
907425667,,Neipel Sandkaul,,49.4845867,6.9265711,,,,,,
907425847,,Neipel Scherer,,49.4827304,6.9206739,,,,,,
907426243,,Neipel Abzweig Dorf,,49.4832195,6.9156794,,,,,,
906550727,,Dorf im Bohnental Abzweig,,49.4837769,6.9149223,,,,,,
2536520210,,Dorf im Bohnental Dewes,,49.4849551,6.9180021,,,,,,
907426201,,Lindscheid Johann,,49.489481,6.9262473,,,,,,
907426328,,Lindscheid Siedlung,,49.4924263,6.9299566,,,,,,
2534184421,,Niederhofen Aatz,,49.4993547,6.9434825,,,,,,
907425923,,Überroth Brunnen,,49.4997198,6.9462931,,,,,,
2534148894,,Überroth Scherer,,49.4988494,6.9471578,,,,,,
5362245672,,Dautweiler Heckmann,,49.4974794,6.9703129,,,,,,
907426819,,Abzweig Überroth,,49.4939484,6.979354,,,,,,
907426654,,Hasborn Kirche,,49.4902419,6.9777139,,,,,,
907426066,,Sotzweiler Löß,,49.4698424,7.0004307,,,,,,
2661204761,,Lebach Kaserne,,49.4065087,6.9104021,,,,,,
907426840,,Theley Gewerbegebiet,,49.5060357,7.0100728,,,,,,
3249259916,,Wilhelm-Heinrich-Brücke,,49.2339108,6.9925414,,,,,,
934866967,,Cottbuser Platz,,49.2430706,6.9724042,,,,,,
907426094,,Theley Roth,,49.4979541,7.0290186,,,,,,
907426004,,Theley Ziegelhütte,,49.4953819,7.0354783,,,,,,
2536435682,,Lindscheid Siedlung,,49.4924908,6.9297411,,,,,,
907426137,,Leitzweiler,,49.489281,7.0005099,,,,,,
907426630,,Theley Kirche,,49.4989323,7.02309,,,,,,
907425989,,Bergweiler Lachmühle,,49.4796695,6.9928975,,,,,,
2534184407,,Unnamed bus stop.,,49.4990444,6.940687,,,,,,
906491621,,Lebach Realschule,,49.4138315,6.9040207,,,,,,
609764154,,Staatstheater,,49.231473,6.9961742,,,,,,
2521589800,,Leitzweiler,,49.4892143,6.9991633,,,,,,
440863671,,Cottbuser Platz,,49.2425946,6.9731684,,,,,,
907426276,,Bergweiler Kapelle,,49.4734982,6.9953057,,,,,,
907426528,,Ortseingang,,49.4967033,7.0165421,,,,,,
2284928967,,Theley Kirche,,49.4984067,7.0233131,,,,,,
815571554,,St.Johanner Markt,,49.2323991,6.9987793,,,,,,
906645225,,Blieskastel Freizeitzentrum,,49.2360947,7.2686539,,,,,,
906645228,,Blieskastel Auf Scharlen,,49.2351156,7.2698701,,,,,,
906645269,,Mimbach Neustraße,,49.2314821,7.2675021,,,,,,
906645462,,Mimbach Winterbergstraße,,49.229073,7.2671874,,,,,,
1372093072,,Mimbach Auf der Acht,,49.225622,7.269594,,,,,,
906645556,,Breitfurt Hanfruthenweg,,49.2003254,7.245856,,,,,,
906645251,,Breitfurt Kirche,,49.1964331,7.2473392,,,,,,
906645337,,Breitfurt Am Sportplatz,,49.1943565,7.249164,,,,,,
906645605,,Breitfurt Kirchheimerhof,,49.1866707,7.2494427,,,,,,
906649804,,Bliesdalheim Kirche,,49.1740516,7.2379197,,,,,,
906649827,,Bliesdalheim In der Talsbach,,49.170553,7.2322981,,,,,,
906645414,,Blieskastel Friedhof,,49.2326957,7.2578836,,,,,,
906645761,,Blickweiler Am Güterbahnhof,,49.2159757,7.2546115,,,,,,
906645581,,Blickweiler Ortsmitte,,49.2134227,7.2523822,,,,,,
906645661,,Blickweiler Wolfersheimer Straße,,49.2105025,7.2487008,,,,,,
906645441,,Wolfersheim Friedhof,,49.1920743,7.2290826,,,,,,
906645786,,Wolfersheim Im Gassengarten,,49.190346,7.2244583,,,,,,
3909499596,,Uniklinik Parkhaus H1,,49.3102833,7.3452961,,,,,,
3909224117,,Uni-Pneumonologie H7,,49.3017255,7.3445846,,,,,,
3907197039,,Uni-Versorgungszentrum,,49.3040765,7.3403936,,,,,,
3907197055,,Uni-Augenklinik H11,,49.3077018,7.3418373,,,,,,
321667227,,Uni-HNO-Klinik H12,,49.3103343,7.3417579,,,,,,
1298149579,,Uni-Kiefer-Herz-Thoraxkl. H9,,49.3050888,7.3435747,,,,,,
3915080953,,Uni-Radiologie H10,,49.3063359,7.3439651,,,,,,
672296060,,Uni-Hämostaseol./Vers.Z. H8,,49.3040685,7.3423401,,,,,,
1279059260,,"Füllengarten Siedlung, Saarbrücken Burbach",,49.2478822,6.9280058,,,,,,
898163741,,InnovationsCampus West,,49.2462864,6.933691,,,,,,
271513369,,InnovationsCampus Ost,,49.2446764,6.9369891,,,,,,
266813936,,Im Malhofen,,49.244825,6.9426878,,,,,,
266209509,,Burbacher Kirche B,,49.2419047,6.9425023,,,,,,
3451636281,,Burbach Bahnhof,,49.2414924,6.9559039,,,,,,
5300080858,,Brückenstraße B,,49.2393493,6.9712622,,,,,,
3452128144,,Malstatter Markt,,49.2391473,6.9755325,,,,,,
5300080860,,Auf der Werth/Bürgerpark,,49.2393642,6.981071,,,,,,
3452157020,,Trierer Straße D,,49.2403678,6.9856723,,,,,,
3453756483,,"Hauptbahnhof D, Saarbrücken",,49.2399862,6.9905738,,,,,,
274917268,,Bahnhofstraße,,49.2376644,6.9907547,,,,,,
5298622460,,Deutsche Rentenversicherung Saarland,,49.236853,7.003402,,,,,,
5298622445,,Preußenstraße,,49.2379765,7.0075548,,,,,,
930808639,,Sachsenweg/Preußenstraße,,49.2348968,7.0117502,,,,,,
930808632,,Thüringer Straße,,49.2319211,7.0135958,,,,,,
930808619,,Halbergstraße,,49.2299751,7.0176967,,,,,,
5298115584,,Kieselhumes,,49.228361,7.017683,,,,,,
899646925,,Schafbrücke,,49.2307317,7.0508534,,,,,,
4685050891,,"Perl, Schengen Lyzeum",,49.4798324,6.3868182,,,,,,
5022793387,,Orscholz Sportplatz,,49.5051159,6.5186772,,,,,,
846894667,,Merzig Stadthalle,,49.4413232,6.6337632,,,,,,
1627891586,,Merzig Bahnhof,,49.4372087,6.6346234,,,,,,
1778305696,,"Schengen, Koerech",,49.4704324,6.3640379,,,,,,
2146556235,,"Schengen, Ennen am Doref",,49.4731643,6.3659384,,,,,,
4391745361,,"Schengen, Séckerbaach",,49.4751286,6.3660699,,,,,,
4391684122,,"Bech-Kleinmacher, Furwee",,49.5276618,6.3546748,,,,,,
1759714517,,"Bech-Kleinmacher, Centre",,49.5319849,6.3545032,,,,,,
1778290339,,"Remich, Piscine",,49.5395724,6.3644577,,,,,,
5036361001,,"Perl, Schengen Lyzeum",,49.4799017,6.3868119,,,,,,
904357035,,"Perl, Maimühle",,49.4742098,6.3714807,,,,,,
1759714522,,"Bech-Kleinmacher, Centre",,49.531975,6.3544082,,,,,,
4391684121,,"Bech-Kleinmacher, Furwee",,49.5276353,6.3544742,,,,,,
1778305699,,"Schengen, Koerech",,49.4705339,6.3641266,,,,,,
2146556225,,"Schengen, Ennen am Doref",,49.4732061,6.3658579,,,,,,
267968193,,Völklingen Altes Rathaus,,49.2492417,6.8533974,,,,,,
5024459671,,Luisenthal Pottaschdell,,49.2516953,6.889134,,,,,,
5024520326,,Luisenthal Alte Schule,,49.2511497,6.8928791,,,,,,
277286754,,Straße des 13. Januar,,49.2482871,6.9012405,,,,,,
270370422,,Luisenthal Althansstraße,,49.2512251,6.9086179,,,,,,
270370634,,Luisenthal Friedhof,,49.2525233,6.9045599,,,,,,
270370442,,Luisenthal Albertstraße,,49.2531181,6.9024316,,,,,,
270370633,,Luisenthal Friedhof,,49.2524414,6.9047892,,,,,,
270370423,,Luisenthal Althansstraße,,49.2510952,6.9086532,,,,,,
270369533,,Luisenthal Schienenweg,,49.2535317,6.9093876,,,,,,
270368072,,Luisenthal Montanhäuser,,49.2585256,6.9065951,,,,,,
270366642,,Altenkessel An den Pferdeställen,,49.2610173,6.9047681,,,,,,
898163750,,Altenkessel Talstraße,,49.2599036,6.9079664,,,,,,
311301015,,Losheim Bahnhof,,49.5066493,6.7453507,,,,,,
270369534,,Luisenthal Schienenweg,,49.2530028,6.9097357,,,,,,
270369551,,Luisenthal Ehrenmal,,49.2496138,6.9093752,,,,,,
5014997006,,Luisenthal Zum Veltheimstollen,,49.2480046,6.9081427,,,,,,
270372349,,Luisenthal Parkstraße,,49.2486005,6.9063378,,,,,,
270362463,,Luisenthal Bahnhof,,49.2493122,6.9041163,,,,,,
277286755,,Straße des 13. Januar,,49.248303,6.9011163,,,,,,
5024522266,,Luisenthal Chemische Fabrik,,49.2501792,6.8962362,,,,,,
252791994,,Luisenthal Alte Schule,,49.2511975,6.8925392,,,,,,
5024448635,,Luisenthal Aluminiumwerk,,49.2526059,6.8811943,,,,,,
5319013077,,Bismarckstraße,,49.25082,6.8538271,,,,,,
901472730,,Am Hüttenwerk,,49.2499085,6.8501645,,,,,,
2713291006,,Völklingen Weltkulturerbe,,49.2487174,6.8464613,,,,,,
1662157889,,"Remich, Piscine",,49.539694,6.3642956,,,,,,
4391745362,,"Schengen, Séckerbaach",,49.4760363,6.3660389,,,,,,
5046808491,,Besch Ortsmitte B419,,49.5043251,6.3726202,,,,,,
5046808490,,Besch Chemisches Werk,,49.516908,6.3762224,,,,,,
5046808489,,Nennig Römische Villa,,49.5287774,6.38329,,,,,,
266856887,,Weiten Raiffeisen,,49.5326201,6.5396157,,,,,,
904356996,,Weiten Raiffeisen,,49.5326577,6.5397003,,,,,,
264089156,,Rehaklinik,,49.5077431,6.5385718,,,,,,
5069917764,,Rehaklinik,,49.5078452,6.5390754,,,,,,
5069917765,,Rehaklinik,,49.5077894,6.5391102,,,,,,
5075029387,,"Remich, Gare Routière",,49.5426854,6.368165,,,,,,
261667646,,"Nennig, Bahnhof",,49.5392891,6.3764611,,,,,,
1837663044,,"Perl, Schampaul",,49.4722486,6.3836462,,,,,,
1969635271,,Jespere,,49.1575245,7.0272525,,,,,,
5296650596,,Stadion Kieselhumes B,,49.233074,7.021704,,,,,,
5298115585,,Ostbahnhof,,49.230633,7.0203872,,,,,,
5298622464,,Hirtenwies,,49.220706,6.964593,,,,,,
267041521,,Südring D,,49.2184513,6.9681643,,,,,,
289743470,,Deutsch-Franz. Garten DFG Süd,,49.2211501,6.9717642,,,,,,
289743469,,Bellevue B,,49.2253202,6.9764845,,,,,,
5298622462,,Schutzbergstraße,,49.2275062,6.97974,,,,,,
5298622468,,Am Versorgungshaus,,49.22985,6.982549,,,,,,
2929471274,,Keplerstraße,,49.2317163,6.9861493,,,,,,
5308747731,,Haus der Zukunft C,,49.2377332,6.9990525,,,,,,
5298622448,,Heimgarten,,49.238545,7.0100304,,,,,,
5298622449,,Ernst-Wagner-Weg,,49.2396129,7.0141184,,,,,,
5298622452,,Ilsestraße D,,49.2411128,7.0171174,,,,,,
354589967,,Ilseplatz,,49.2424729,7.015503,,,,,,
5299929933,,Waldhaus,,49.2462828,7.0214201,,,,,,
5299929931,,Wildpark,,49.248952,7.026619,,,,,,
5299929928,,Landessportschule,,49.2523953,7.0328488,,,,,,
441910960,,Universität Campus,,49.2547485,7.0407391,,,,,,
5299929924,,Universität Campus,,49.254671,7.040973,,,,,,
5300080862,,Roonstraße C,,49.2344692,6.9827666,,,,,,
1580693678,,HBF SaarLB,,49.2395427,6.9936838,,,,,,
5300080869,,Stadtbad,,49.2391404,6.9955692,,,,,,
5300080868,,An der Trift,,49.2417938,7.0070986,,,,,,
899421286,,Prinzenweiher/DJH,,49.2438252,7.0121673,,,,,,
5298622466,,Bellevue B,,49.2252847,6.9766824,,,,,,
5298622454,,Ilsestraße E,,49.2405459,7.0180265,,,,,,
5301563284,,Schwarzenbergstraße,,49.2389173,7.0183001,,,,,,
5301563281,,Zweibrücker Straße,,49.2358748,7.0205102,,,,,,
899421314,,Breslauer Straße,,49.231713,7.0488839,,,,,,
5301563277,,Gördelerstraße,,49.2281954,7.0439264,,,,,,
5301563276,,Am Zoo,,49.2284866,7.0403649,,,,,,
5330061352,,Universität Busterminal G,,49.2575358,7.0477423,,,,,,
3452189397,,Landwehrplatz,,49.2332765,7.0008802,,,,,,
930011817,,Deutschherrnstraße,,49.2321637,6.9755379,,,,,,
365377979,,Deutschhausweg,,49.2316386,6.9733174,,,,,,
365377977,,Abtsdell,,49.2309592,6.9682858,,,,,,
408467904,,Ober der Deutschmühl,,49.2299358,6.9643943,,,,,,
365377973,,Parsevalstraße,,49.2273687,6.9681178,,,,,,
365377969,,Lulustein,,49.2265501,6.9737553,,,,,,
267041638,,Heidenhübel,,49.2151601,6.9671956,,,,,,
267041835,,Neue Bremm,,49.2109087,6.9642888,,,,,,
273533261,,Hauptfriedhof,,49.2070452,6.9616158,,,,,,
408482305,,Goldene Bremm,,49.2053724,6.9587457,,,,,,
929993793,,Hauptfriedhof,,49.207438,6.9618826,,,,,,
362450770,,Neue Bremm,,49.2105747,6.964201,,,,,,
408468500,,Lulustein,,49.2261376,6.9753688,,,,,,
408468499,,Parsevalstraße,,49.2274607,6.9687016,,,,,,
408467905,,Ober der Deutschmühl,,49.2296042,6.9642912,,,,,,
481248728,,Abtsdell,,49.2309366,6.9688532,,,,,,
930054304,,Deutschhausweg,,49.2315568,6.9737591,,,,,,
899605969,,Deutschherrnstraße,,49.2321623,6.975735,,,,,,
273533260,,Hauptfriedhof,,49.2078195,6.9617089,,,,,,
273533262,,"Hauptfriedhof Nordeingang, Saarbrücken",,49.2093294,6.9583933,,,,,,
930019286,,Habsterdick,,49.2124703,6.9546247,,,,,,
389943016,,Folsterweg,,49.2200872,6.9568683,,,,,,
273533267,,Schönecker-Weg,,49.2252245,6.9607705,,,,,,
273533268,,Schönecker-Weg,,49.2267966,6.961458,,,,,,
273533270,,Deutsch-Franz. Garten DFG Nord,,49.2296296,6.9612938,,,,,,
273533272,,Messegelände B,,49.2321608,6.9634785,,,,,,
481246351,,Richtweg,,49.2325031,6.9685229,,,,,,
318919815,,Hansahaus/Ludwigskirche D,,49.233663,6.9871744,,,,,,
2285460545,,Wilhelm-Heinrich-Brücke,,49.2338039,6.9928121,,,,,,
2550222423,,Staatstheater,,49.2317043,6.9953809,,,,,,
394825661,,St.Johanner Markt,,49.2317204,6.9985516,,,,,,
899512319,,Paul-Marien-Straße,,49.2306,7.0025148,,,,,,
899605983,,Franz-Josef-Röder-Straße,,49.2262633,7.0008545,,,,,,
798845183,,Feldmannstraße A,,49.2243259,7.0005357,,,,,,
798845190,,Blücherstraße,,49.2232772,7.0026588,,,,,,
930040070,,Schenkelberg,,49.2200731,7.0090007,,,,,,
1111037594,,Julius-Kiefer-Straße C,,49.2186153,7.0130742,,,,,,
930053839,,St.Arnual Markt,,49.2166137,7.0161184,,,,,,
2929358955,,Lehmkaulweg,,49.2145982,7.0175932,,,,,,
2929345478,,St.Arnual Forsthaus,,49.2113955,7.0189397,,,,,,
2929321248,,Hartmanns Au,,49.2036404,7.0169298,,,,,,
2928978609,,Sonnenbergstraße,,49.2011165,7.0161559,,,,,,
2152561592,,Klinik Tiefental,,49.1989087,7.0149512,,,,,,
278265306,,Klinik Tiefental,,49.1989577,7.0149824,,,,,,
430808236,,Sonnenberg Krankenhaus,,49.2003977,7.0126114,,,,,,
278263578,,Klinik Tiefental,,49.1993037,7.0163078,,,,,,
2929004118,,Schönbach,,49.1974988,7.0200604,,,,,,
271513351,,Güdingen Unner,,49.193824,7.0247764,,,,,,
899737808,,Güdingen Rennbahn,,49.1943063,7.0262873,,,,,,
276389513,,Kanalstraße,,49.1979954,7.0295788,,,,,,
276389588,,Güdingen Schule,,49.2006466,7.0279825,,,,,,
274425521,,Güdingen Friedhof,,49.2043082,7.0258169,,,,,,
899646828,,Güdingen Globus Handelshof,,49.2083371,7.0284159,,,,,,
1108372895,,Bühlerstraße,,49.2107403,7.0317857,,,,,,
1108372889,,Halberger Hütte D,,49.2146371,7.0341859,,,,,,
5305391628,,Brebach Bahnhof D,,49.2160891,7.0297003,,,,,,
5305391632,,Brebach Bahnhof D,,49.2160912,7.0296541,,,,,,
437243731,,Halberger Hütte C,,49.2146449,7.0340053,,,,,,
899646882,,Bühlerstraße,,49.211006,7.0317427,,,,,,
274425535,,Güdingen Globus Handelshof,,49.2080486,7.0279267,,,,,,
274425533,,Güdingen Friedhof,,49.2052267,7.0255428,,,,,,
276389586,,Güdingen Schule,,49.2003101,7.028015,,,,,,
930071663,,Güdingen Rennbahn,,49.1941894,7.026225,,,,,,
930071660,,Güdingen Unner,,49.1939415,7.0247303,,,,,,
104581464,,Schönbach,,49.1970495,7.0210432,,,,,,
402850725,,Hartmanns Au,,49.2037419,7.0169839,,,,,,
2928989577,,Sonnenbergstraße,,49.2012047,7.016324,,,,,,
2929345477,,St.Arnual Forsthaus,,49.2116611,7.0188025,,,,,,
899405055,,St.Arnual Markt,,49.2163487,7.0164167,,,,,,
2929387302,,Julius-Kiefer-Straße B,,49.2189239,7.012113,,,,,,
899405044,,Schenkelberg,,49.2208369,7.0078688,,,,,,
798845189,,Blücherstraße,,49.2232961,7.0028297,,,,,,
2283357169,,Feldmannstraße B,,49.2247054,7.0008114,,,,,,
899606061,,Franz-Josef-Röder-Straße,,49.2277593,7.001677,,,,,,
2271670592,,Paul-Marien-Straße,,49.2310472,7.0030708,,,,,,
481246349,,Richtweg,,49.2326223,6.9678894,,,,,,
267035033,,Messegelände A,,49.2321184,6.9630645,,,,,,
273533271,,Deutsch-Franz. Garten DFG Nord,,49.2299749,6.9615103,,,,,,
5305391625,,Schönecker-Weg,,49.2268029,6.9613196,,,,,,
273533266,,Folsterweg,,49.2197317,6.9564517,,,,,,
929993801,,"Hauptfriedhof Nordeingang, Saarbrücken",,49.2091936,6.9586707,,,,,,
5330061354,,Universität Busterminal H,,49.2576929,7.0481948,,,,,,
262167634,,Bellevue D,,49.2253187,6.9778695,,,,,,
262167633,,Steubenstraße,,49.224449,6.9823624,,,,,,
789739366,,40er Grab,,49.2238702,6.9864268,,,,,,
365152189,,Hohe Wacht,,49.2207105,6.9835563,,,,,,
365152190,,Birkenpfad,,49.2229861,6.9898209,,,,,,
365152191,,Petersbergstraße,,49.2238211,6.9955405,,,,,,
365152192,,Feldmannstraße D,,49.2251597,6.9998926,,,,,,
3277319406,,Hardenbergstraße,,49.2265649,6.9978195,,,,,,
365152194,,Spichererbergstraße,,49.228767,6.9932816,,,,,,
3788216451,,Schlossplatz,,49.2303755,6.990794,,,,,,
3788216450,,Schlossplatz,,49.2300198,6.9911693,,,,,,
366285799,,Spichererbergstraße,,49.2285735,6.9935893,,,,,,
3277319405,,Hardenbergstraße,,49.2267051,6.9974667,,,,,,
366285804,,Feldmannstraße C,,49.2243058,6.9994715,,,,,,
366285807,,Petersbergstraße,,49.2239457,6.9958052,,,,,,
366285809,,Birkenpfad,,49.2229362,6.9892477,,,,,,
366285813,,Hohe Wacht,,49.2207037,6.9839408,,,,,,
365152196,,40er Grab,,49.2238335,6.9861927,,,,,,
262167631,,Steubenstraße,,49.2244331,6.9833463,,,,,,
262167635,,Bellevue C,,49.2255623,6.9771601,,,,,,
1372093361,,Wohnstift Reppersberg,,49.2251846,6.9933952,,,,,,
797325314,,Messegelände,,49.2327358,6.9623598,,,,,,
771468920,,Friedrichsthal Stadtbad,,49.3220172,7.1066915,,,,,,
771468921,,Ludwigstraße,,49.3212518,7.1019484,,,,,,
271785606,,Friedrichsthal Markt,,49.3222077,7.0965037,,,,,,
695154096,,Friedrichsthal Bahnhof,,49.3193108,7.0903691,,,,,,
695153926,,Oststraße,,49.3139613,7.0852103,,,,,,
901207869,,Altenwalder Markt,,49.3107322,7.0816206,,,,,,
901207556,,Altenwald Kirche,,49.3086909,7.0784487,,,,,,
901207758,,Hammersberg,,49.3061347,7.0740999,,,,,,
901207345,,Parallelstraße,,49.3042143,7.0706914,,,,,,
901207525,,Sulzbach Stadtwerke,,49.2955022,7.0538047,,,,,,
898125971,,Hirschbach,,49.2893459,7.0445328,,,,,,
416860374,,Sudstraße,,49.284032,7.0414063,,,,,,
5310960490,,Dudweiler Dudoplatz C,,49.2764514,7.0334555,,,,,,
5310960491,,Dudweiler Dudoplatz C,,49.2764577,7.0333914,,,,,,
368396860,,St.Avolder Straße,,49.275615,7.0298005,,,,,,
368397658,,Herrensohrer Weg,,49.2731431,7.024346,,,,,,
368397659,,Wilhelmshöhe,,49.2708118,7.0174776,,,,,,
368397660,,Malditzer Wiese,,49.268214,7.012133,,,,,,
4018203447,,Maybachstraße,,49.2651346,7.0089306,,,,,,
368399122,,Krämersweg,,49.251448,7.0052903,,,,,,
1371136704,,Bauhaus,,49.245737,7.0054107,,,,,,
4018203441,,Hauptgüterbahnhof,,49.24312,7.0028895,,,,,,
4018203442,,Bauhaus,,49.2453299,7.0055345,,,,,,
5230936028,,Verladebahnhof,,49.2483932,7.0055335,,,,,,
3706398996,,Krämersweg,,49.2513296,7.0059306,,,,,,
930841913,,Achenbachstraße,,49.2589022,7.0026794,,,,,,
368397859,,Jägersfreude Kirche,,49.2623169,7.0043547,,,,,,
1805802921,,Maybachstraße,,49.2648422,7.0085396,,,,,,
368397661,,Malditzer Wiese,,49.2679695,7.0119628,,,,,,
771494994,,Wilhelmshöhe,,49.2706018,7.0174803,,,,,,
5310897607,,Herrensohrer Weg,,49.273566,7.0254581,,,,,,
368396861,,Herrensohrer Weg,,49.2734973,7.0255329,,,,,,
2471551216,,Dudweiler Dudoplatz A,,49.276895,7.0331334,,,,,,
732048498,,Dudweiler Dudoplatz A,,49.2768433,7.0331957,,,,,,
416860375,,Sudstraße,,49.2839843,7.0415677,,,,,,
932246117,,Hirschbach,,49.2890952,7.0446812,,,,,,
932246102,,Sulzbach Stadtwerke,,49.2955932,7.0542124,,,,,,
932243970,,Parallelstraße,,49.3040962,7.0710742,,,,,,
932243967,,Hammersberg,,49.306006,7.0744216,,,,,,
932243964,,Altenwald Kirche,,49.3086302,7.0785833,,,,,,
932242150,,Altenwalder Markt,,49.3108858,7.0820411,,,,,,
695153928,,Oststraße,,49.3138575,7.0851857,,,,,,
695154094,,Friedrichsthal Bahnhof,,49.3192209,7.0901674,,,,,,
271785605,,Friedrichsthal Markt,,49.3215133,7.0958935,,,,,,
771468918,,Ludwigstraße,,49.3209622,7.1026567,,,,,,
771468919,,Friedrichsthal Stadtbad,,49.3220397,7.1072074,,,,,,
660481447,,Elversberg Kaiserlinde,,49.3170043,7.1232705,,,,,,
660471754,,Elversberg Kirche,,49.3146325,7.1268669,,,,,,
660472460,,Elversberg Markt,,49.3130623,7.127211,,,,,,
661443499,,Elversberg Große Bergstraße,,49.3102648,7.1255957,,,,,,
5310898038,,Elversberg Friedhof,,49.3086016,7.1234651,,,,,,
660492287,,Elversberg Friedhof,,49.3085306,7.1234844,,,,,,
252142602,,Klarenthal Birkenweg,,49.229089,6.8858044,,,,,,
255277513,,Peterstraße,,49.2306543,6.8890193,,,,,,
255277595,,Fenner Straße,,49.231969,6.8909206,,,,,,
3394232815,,Am Dachshübel,,49.2318964,6.8945748,,,,,,
255277515,,Klarenthal Rathaus,,49.230433,6.8964995,,,,,,
257945818,,Krughütte,,49.2262913,6.8997759,,,,,,
257945950,,Krughütte,,49.2274281,6.8986931,,,,,,
264020582,,Annastraße,,49.2249129,6.9034377,,,,,,
262207373,,Friedrichstraße,,49.2258114,6.9071964,,,,,,
262207377,,Am Ziegelhof,,49.2262877,6.9111536,,,,,,
265781463,,Am Sprinkshaus,,49.2257566,6.9149576,,,,,,
273513364,,Pfählerstraße,,49.2321823,6.9239401,,,,,,
5310898089,,Kirchenstraße,,49.2347427,6.9275459,,,,,,
273513365,,Kirchenstraße,,49.2347106,6.9275856,,,,,,
273513366,,Gersweiler Markt,,49.236788,6.9301897,,,,,,
266365340,,Heuweg,,49.2365865,6.9343373,,,,,,
266371906,,Willerbach,,49.2364849,6.9411066,,,,,,
906440241,,Elversberg Erzpfuhl,,49.3130146,7.1309105,,,,,,
5177803336,,Spiesen Lutherische Kirche,,49.3116611,7.138459,,,,,,
668721491,,Spiesen Am Wildbertsstock,,49.3101579,7.1443283,,,,,,
668721492,,Spiesen In der Langdell,,49.3120968,7.1475996,,,,,,
906440242,,Spiesen Markt,,49.3144439,7.1521072,,,,,,
668721493,,Spiesen Forsthaus,,49.3180828,7.1555627,,,,,,
2576986376,,Spiesen Am Beckerwald,,49.3199514,7.1590918,,,,,,
771544310,,Spiesen Am Beckerwald,,49.3199968,7.1590837,,,,,,
5310898065,,Klarenthal Weidenstraße,,49.2291777,6.9044177,,,,,,
257945803,,Klarenthal Weidenstraße,,49.22916,6.9046024,,,,,,
262627532,,An den Ziegelhütten,,49.2291202,6.9022581,,,,,,
932233840,,Elversberg Fichtenstraße,,49.3150089,7.1296091,,,,,,
932233839,,Elversberg Weiherweg,,49.3165598,7.1328197,,,,,,
660477286,,Elversberg Galgenbergturm,,49.3169372,7.137203,,,,,,
660507500,,Elversberg Thomas-Mann-Straße,,49.3170244,7.1442947,,,,,,
4813654626,,Spiesen Butterberg,,49.3177414,7.1463683,,,,,,
771544405,,Spiesen Forsthaus,,49.3176315,7.1538654,,,,,,
4788910221,,Spiesen Markt,,49.3151188,7.1521474,,,,,,
2719122254,,Spiesen In der Langdell,,49.3121353,7.147516,,,,,,
4813652421,,Spiesen Am Wildbertsstock,,49.3101134,7.1440366,,,,,,
4813652321,,Spiesen Lutherische Kirche,,49.3115597,7.1401169,,,,,,
660471648,,Elversberg Kirche,,49.3147146,7.1270196,,,,,,
660481134,,Elversberg Kaiserlinde,,49.3172706,7.1229785,,,,,,
266371905,,Willerbach,,49.2365821,6.9408003,,,,,,
266365339,,Heuweg,,49.2367109,6.9338103,,,,,,
266204329,,Gersweiler Markt,,49.2369082,6.9303014,,,,,,
5310898088,,Kirchenstraße,,49.2344985,6.9270161,,,,,,
747245168,,Kirchenstraße,,49.2345232,6.9269873,,,,,,
932264763,,Pfählerstraße,,49.2316988,6.9230135,,,,,,
262213806,,Am Sprinkshaus,,49.2261937,6.9143415,,,,,,
262207378,,Am Ziegelhof,,49.2265682,6.9117614,,,,,,
262207372,,Friedrichstraße,,49.2260543,6.9076185,,,,,,
262207375,,Annastraße,,49.2249878,6.9034009,,,,,,
257945816,,Krughütte,,49.2266094,6.8997224,,,,,,
262627533,,An den Ziegelhütten,,49.2285268,6.9021576,,,,,,
661443504,,Elversberg Große Bergstraße,,49.3100966,7.1255917,,,,,,
660472538,,Elversberg Markt,,49.3128593,7.1273088,,,,,,
257945949,,Krughütte,,49.2275124,6.8988731,,,,,,
255277516,,Klarenthal Rathaus,,49.2302797,6.8969801,,,,,,
3394232816,,Am Dachshübel,,49.2319391,6.8946557,,,,,,
255277594,,Fenner Straße,,49.2320002,6.8908473,,,,,,
255277514,,Peterstraße,,49.2309318,6.889318,,,,,,
255277512,,Klarenthal Birkenweg,,49.2286718,6.8846928,,,,,,
771544418,,Spiesen Forsthaus,,49.3179602,7.1542623,,,,,,
660507325,,Spiesen Butterberg,,49.3178417,7.1457748,,,,,,
660477031,,Elversberg Galgenbergturm,,49.3170609,7.1376584,,,,,,
906440240,,Elversberg Weiherweg,,49.3168676,7.1330772,,,,,,
906440249,,Elversberg Fichtenstraße,,49.315238,7.129526,,,,,,
3454126606,,Burbacher Markt A,,49.2412816,6.9449773,,,,,,
266209522,,Rockershausen,,49.2464637,6.9152381,,,,,,
5024429607,,Völklingen Altes Rathaus,,49.2493134,6.8534594,,,,,,
288281248,,Rockershausen,,49.2462939,6.9154451,,,,,,
279078296,,Burbacher Markt C,,49.2405757,6.945581,,,,,,
5324789115,,Gutenbergstraße C,,49.2359758,6.9896506,,,,,,
769904837,,Altenwald Skatezentrum,,49.3135657,7.0776939,,,,,,
901472224,,Schnappach Zum Ruhbachtal,,49.3069327,7.0822061,,,,,,
1371136771,,Schnappach Am Lindenbaum,,49.3054808,7.0788364,,,,,,
901207780,,Sulzbach Sportplatz,,49.3016442,7.0695158,,,,,,
5310960489,,Dudweiler Dudoplatz D,,49.2766671,7.0335307,,,,,,
732048494,,Dudweiler Dudoplatz D,,49.2766747,7.0334684,,,,,,
266204292,,Theresienstraße,,49.2374723,6.9246674,,,,,,
264768143,,Ottenhausen,,49.2397268,6.914901,,,,,,
295683760,,Ottenhausen Siedlung,,49.2368777,6.9049118,,,,,,
255420806,,Ostschachtstraße,,49.2349467,6.902522,,,,,,
262627531,,Neu Aschbach,,49.231264,6.9032827,,,,,,
269539490,,Karlstraße,,49.2269653,6.8908306,,,,,,
269539491,,Karlstraße,,49.2271543,6.8912337,,,,,,
269539633,,Am Bruch,,49.2240016,6.8876773,,,,,,
269539635,,Am Bruch,,49.2233174,6.8870647,,,,,,
269539637,,Klarenthal Jägerpfad,,49.2239775,6.8838105,,,,,,
5011077902,,Altenwald Skatezentrum,,49.3137032,7.0792427,,,,,,
769904838,,Altenwald Wiesenstraße,,49.3121275,7.0724257,,,,,,
664252734,,Hühnerfeld Dr. Abt,,49.3114864,7.064497,,,,,,
665992463,,Hühnerfeld Sternplatz,,49.3101778,7.0596764,,,,,,
769906598,,Hühnerfeld Kreisel,,49.3064748,7.0565027,,,,,,
255420800,,Neu Aschbach,,49.2319604,6.9037335,,,,,,
295683769,,Ostschachtstraße,,49.2361098,6.9032827,,,,,,
264768144,,Ottenhausen,,49.2394364,6.9161055,,,,,,
266204291,,Theresienstraße,,49.2374594,6.9240648,,,,,,
932242162,,Sulzbach Sportplatz,,49.3019853,7.0715913,,,,,,
932242158,,Schnappach Am Lindenbaum,,49.3054273,7.0789817,,,,,,
932242155,,Schnappach Zum Ruhbachtal,,49.3070441,7.0827035,,,,,,
831301747,,Sulzbach Bahnhofstraße,,49.2977886,7.0572595,,,,,,
769906601,,Hühnerfeld Kreisel,,49.3063751,7.0566328,,,,,,
664252733,,Hühnerfeld Dr. Abt,,49.311295,7.0642328,,,,,,
495955258,,Blumenstraße,,49.2707133,7.0360899,,,,,,
368396674,,Gartenstraße,,49.2679104,7.0374168,,,,,,
368396673,,Kantstraße,,49.2693091,7.0429311,,,,,,
5299929921,,Universität Busterminal A,,49.2577417,7.0476005,,,,,,
3451636291,,Burbach Bahnhof,,49.2415216,6.9556006,,,,,,
266209511,,Burbacher Kirche C,,49.2425077,6.9408653,,,,,,
266813458,,Im Malhofen,,49.2449415,6.9426676,,,,,,
932195148,,Lindenhof,,49.2480163,6.9413193,,,,,,
898163718,,Am Freibüsch,,49.2518557,6.937288,,,,,,
266991292,,Ulmenstraße,,49.2509638,6.9332595,,,,,,
1279059261,,"Füllengarten Siedlung, Saarbrücken Burbach",,49.2481021,6.9281454,,,,,,
266991295,,Ulmenstraße,,49.2509625,6.9337977,,,,,,
932195143,,Am Freibüsch,,49.2518169,6.9373172,,,,,,
5330061353,,Universität Busterminal C,,49.2574649,7.0472887,,,,,,
365740828,,Guckelsberg,,49.2656243,7.0497711,,,,,,
898125662,,Gehlenbergstraße,,49.2681828,7.0498512,,,,,,
368320411,,Rentrischer Straße,,49.2706779,7.0497322,,,,,,
368320434,,In der Wagenlück,,49.2743628,7.0451671,,,,,,
368320442,,Schwähnselstraße,,49.273941,7.0438452,,,,,,
5300143112,,Uhlandstraße/Mainzer Straße,,49.2299549,7.0054946,,,,,,
667519289,,Hellwigstraße,,49.2291585,7.0111239,,,,,,
5326131684,,Kieselhumes,,49.2285108,7.0155376,,,,,,
359914908,,Scheidt Café Kleinbauer,,49.25012,7.0632534,,,,,,
898125707,,Scheidt Friedhofsweg,,49.253326,7.0682374,,,,,,
898125896,,Scheidt Am Katzental,,49.2565711,7.0734961,,,,,,
2967846674,,Rentrisch Bahnhof,,49.2601094,7.0792834,,,,,,
2967837163,,Rentrisch Brudermühlenweg,,49.2622253,7.0831161,,,,,,
906937227,,Rentrisch Kulturhaus,,49.2663664,7.0856255,,,,,,
906936777,,St.Ingbert Eisenwerk,,49.2708551,7.0934522,,,,,,
2962641995,,St.Ingbert Saarbrücker Straße,,49.2736426,7.1033613,,,,,,
906936726,,Kastanienweg,,49.2748644,7.1086019,,,,,,
560415706,,St Ingbert Rendezvous−Platz,,49.2782595,7.1119642,,,,,,
625475988,,Poststraße,,49.2794366,7.1151052,,,,,,
668721174,,Theodor-Heuss-Platz,,49.2815768,7.1168957,,,,,,
668721175,,St.Ingbert Jägerstraße,,49.2831747,7.1183998,,,,,,
668721177,,St.Ingbert Schützenstraße,,49.2854707,7.1243856,,,,,,
906937441,,Peter-Eich-Straße,,49.2865143,7.1279709,,,,,,
906936574,,Das Blau,,49.287638,7.1316116,,,,,,
906937321,,Rohrbach Umspannwerk,,49.2861727,7.1491586,,,,,,
906936601,,Rohrbach Keglerheim,,49.2854473,7.1545662,,,,,,
906937162,,Rohrbach Ortsmitte,,49.2836759,7.1602798,,,,,,
906937392,,Rohrbach Bahnhofstraße,,49.2814534,7.1610514,,,,,,
906936951,,Rohrbach Abzweig Bahnhof,,49.2789004,7.1593704,,,,,,
906937370,,Rohrbach Alfred-Lippmann-Straße,,49.2753317,7.1600805,,,,,,
906936545,,Hassel Saarstraße,,49.270882,7.1625436,,,,,,
906937270,,Hassel Kantstraße,,49.2670166,7.1622739,,,,,,
750022742,,Hassel Marktplatz,,49.2646125,7.1630439,,,,,,
906937109,,Hassel Rittershofstraße,,49.2631692,7.161402,,,,,,
906936901,,Hassel Wildgehege,,49.2594926,7.1633796,,,,,,
903535854,,Hassel Rittershof,,49.2521602,7.1760183,,,,,,
906645386,,Niederwürzbach Abzweig Bahnhof,,49.2431727,7.1985872,,,,,,
906645590,,Niederwürzbach Kirche,,49.2435907,7.2016828,,,,,,
906645768,,Niederwürzbach Altes Schulhaus,,49.2442899,7.2042991,,,,,,
906645270,,Niederwürzbach Kirschendell,,49.245011,7.2108788,,,,,,
906645675,,Niederwürzbach Breitermühle,,49.2467151,7.2235636,,,,,,
906645271,,Alschbach Talstraße,,49.2430333,7.2432041,,,,,,
906645677,,Alschbach Kindergarten,,49.2382511,7.2363094,,,,,,
906645231,,Alschbach Kirche,,49.2379095,7.234098,,,,,,
906645631,,Alschbach Ortsmitte,,49.2401028,7.2387275,,,,,,
906645973,,Lautzkirchen Abzweig Alschbach,,49.251649,7.2440614,,,,,,
906645482,,Lautzkirchen Espen,,49.2535508,7.2497932,,,,,,
906645724,,Lautzkirchen Kirche,,49.2519776,7.2553756,,,,,,
906645983,,Webenheim Königstraße,,49.2370465,7.2706034,,,,,,
5326131683,,Webenheim Dorfplatz,,49.2412538,7.272976,,,,,,
5326131682,,Webenheim Dorfgemeinschaftshaus,,49.2396427,7.2738934,,,,,,
4476296763,,Webenheim Gunterstal,,49.2349188,7.2730025,,,,,,
4479095022,,Mimbach Gewerbegebiet,,49.2331313,7.2713506,,,,,,
906937041,,Rohrbach Eckstraße,,49.2831254,7.1588041,,,,,,
906937351,,Waldfriedhof,,49.2877946,7.1249023,,,,,,
906937298,,Kohlenstraße,,49.2813798,7.1137303,,,,,,
2962641999,,St.Ingbert Saarbrücker Straße,,49.2736763,7.1034112,,,,,,
255745957,,Rentrisch Brudermühlenweg,,49.2621497,7.0830244,,,,,,
255745963,,Rentrisch Bahnhof,,49.2597988,7.0785529,,,,,,
359914909,,Scheidt Café Kleinbauer,,49.2501036,7.0629843,,,,,,
899512334,,Halbergstraße,,49.2300326,7.0178926,,,,,,
899512312,,Lessingstraße,,49.2314923,7.0106247,,,,,,
3452193718,,Egon-Reinert-Straße,,49.2325898,7.0053883,,,,,,
733206101,,Matzenberg Siedlung,,49.2484821,6.9225937,,,,,,
288281296,,Matzenberg,,49.2453943,6.9214847,,,,,,
288283693,,Füllengarten,,49.2442368,6.9257486,,,,,,
266813418,,Völklinger Straße,,49.2438782,6.9312348,,,,,,
273533275,,Theresienheim,,49.2422552,6.9373393,,,,,,
2929387301,,Julius-Kiefer-Straße A,,49.2185479,7.0125104,,,,,,
897625901,,Tabaksweiher,,49.2162325,7.0077427,,,,,,
899405151,,Kleiner Winterberg,,49.215688,7.0014905,,,,,,
899405086,,Weinbergweg,,49.2172884,6.9967279,,,,,,
899404896,,Hans-Dietlen-Weg,,49.2195177,6.9921797,,,,,,
930053891,,Parkhaus Klinikum,,49.221206,6.9933184,,,,,,
899404853,,Klinikum Saarbrücken,,49.2213605,6.9955207,,,,,,
288281240,,Grube Luisenthal,,49.2479121,6.9048113,,,,,,
272861430,,Luisenthal Zum Veltheimstollen,,49.2475976,6.9075442,,,,,,
930040069,,Robert-Koch-Straße,,49.2194597,7.0070538,,,,,,
899404979,,Hoederathstraße,,49.2187331,7.0059045,,,,,,
930042552,,Virchowstraße,,49.2175604,7.0063163,,,,,,
2336949006,,Quienstraße,,49.2179267,7.0108624,,,,,,
899405119,,Parkhaus Klinikum,,49.2211509,6.9920893,,,,,,
930053887,,Hans-Dietlen-Weg,,49.2194192,6.9920829,,,,,,
930053916,,Weinbergweg,,49.2171819,6.9965195,,,,,,
930053908,,Kleiner Winterberg,,49.215615,7.001668,,,,,,
897625910,,Tabaksweiher,,49.2161162,7.0080173,,,,,,
263743983,,Theresienheim,,49.2426199,6.9366817,,,,,,
266209515,,Völklinger Straße,,49.2438936,6.9310928,,,,,,
266209518,,Füllengarten,,49.2444121,6.9251207,,,,,,
266209520,,Matzenberg,,49.24553,6.9214833,,,,,,
899405007,,Quienstraße,,49.2180143,7.0108679,,,,,,
899404973,,Virchowstraße,,49.2177967,7.006209,,,,,,
899404819,,Robert-Koch-Straße,,49.2195438,7.0073596,,,,,,
266209524,,Luisenthal Zum Veltheimstollen,,49.2476632,6.907169,,,,,,
416933684,,Von der Heydt,,49.2778307,6.9486115,,,,,,
898125689,,Forstamt,,49.276833,6.9506041,,,,,,
2958180997,,Von der Heydt Siedlung,,49.2757115,6.9530747,,,,,,
2958170100,,Heinrichshaus,,49.2749852,6.9618201,,,,,,
1271046553,,Von der Heydt Siedlung,,49.2760073,6.9528705,,,,,,
899405091,,Paul-Lincke-Straße,,49.2460592,6.9966357,,,,,,
5308747722,,Hauptbahnhof Nord,,49.242328,6.990097,,,,,,
570741753,,Grülingsstraße,,49.245062,6.9936849,,,,,,
930877462,,Neunkircher Straße,,49.2473313,6.9959272,,,,,,
930877545,,Lehárstraße,,49.2492521,6.9965173,,,,,,
899562572,,Türkismühler Straße,,49.2514738,6.9938773,,,,,,
899562556,,Ottweilerstraße,,49.2502745,6.9909706,,,,,,
899562425,,Rodenhof Kirche,,49.2482897,6.9912701,,,,,,
899562429,,An der Schlucht,,49.2469146,6.989034,,,,,,
899562596,,Sittersweg,,49.2449235,6.9858291,,,,,,
2804680367,,Ludwigsberg,,49.2435167,6.9829718,,,,,,
3452184249,,Egon-Reinert-Straße,,49.2324798,7.005831,,,,,,
5334139613,,Lessingstraße,,49.2313659,7.0115698,,,,,,
368320449,,Schwähnselstraße,,49.2738784,7.0437868,,,,,,
546452067,,In der Wagenlück,,49.2740297,7.0455187,,,,,,
368320419,,Rentrischer Straße,,49.2708207,7.0493559,,,,,,
925563535,,Gehlenbergstraße,,49.2685011,7.049843,,,,,,
365740827,,Guckelsberg,,49.2657351,7.0496011,,,,,,
5023994125,,Rockershausen Schubertstraße,,49.2501542,6.9147266,,,,,,
898163726,,Rockershausen Am Dachsbau,,49.2526162,6.9152165,,,,,,
932218379,,Altenkessel Jahnstraße,,49.2571974,6.9162655,,,,,,
534156613,,Burbacher Straße,,49.2589718,6.9164539,,,,,,
534162114,,Altenkessel Rathaus,,49.2619219,6.9165202,,,,,,
898163720,,Altenkessel Altgasse,,49.2615312,6.9103643,,,,,,
898163753,,Altenkessel Eselspfad,,49.2613197,6.914285,,,,,,
534162102,,Altenkessel Rathaus,,49.2613515,6.9169118,,,,,,
534156607,,Burbacher Straße,,49.2595538,6.9165801,,,,,,
898163771,,Altenkessel Jahnstraße,,49.2572099,6.9160778,,,,,,
932218418,,Rockershausen Am Dachsbau,,49.2522856,6.9151548,,,,,,
347358106,,Rockershausen Schubertstraße,,49.2497423,6.9146497,,,,,,
490227325,,Kantstraße,,49.2693335,7.041818,,,,,,
368396672,,Gartenstraße,,49.2686235,7.0389255,,,,,,
898125785,,Bruchwiesenstraße,,49.271979,7.0374336,,,,,,
899512280,,Halberg Römerstadt,,49.2246054,7.0257003,,,,,,
5305391629,,Brebach Bahnhof E,,49.2161698,7.0295958,,,,,,
5305391633,,Brebach Bahnhof E,,49.216167,7.0296393,,,,,,
5305391643,,Halberger Hütte B,,49.2147991,7.0349354,,,,,,
2940887566,,Mühlenweg,,49.213749,7.0381311,,,,,,
264254560,,Erzbergerstraße,,49.2118394,7.0432599,,,,,,
405603474,,Kurt-Schumacher-Straße,,49.2091442,7.0488919,,,,,,
955179226,,Fechingen Heringsmühle,,49.2037363,7.0599868,,,,,,
899646939,,Latze Brück,,49.200604,7.062763,,,,,,
625449643,,Fechingen Kirche,,49.1983897,7.0657372,,,,,,
899646955,,Fechingen Ringstraße,,49.2007819,7.0718876,,,,,,
899647033,,Fechingen Drosselweg,,49.2027915,7.077652,,,,,,
899646889,,Fechingen Nachtweide,,49.2005955,7.0774866,,,,,,
5305457315,,Halberg Römerstadt,,49.2245855,7.0256001,,,,,,
437243730,,Halberger Hütte A,,49.2147392,7.0346843,,,,,,
2940887555,,Mühlenweg,,49.2137005,7.0382949,,,,,,
267663734,,Erzbergerstraße,,49.2112146,7.0442598,,,,,,
295338487,,Fechingen Heringsmühle,,49.2043608,7.0600785,,,,,,
954432629,,Fechingen Wieschbachtal,,49.2043308,7.0633662,,,,,,
899646907,,Fechingen Hasenberg,,49.2057999,7.0717162,,,,,,
899646985,,Fechingen Waldstraße,,49.2042717,7.0745838,,,,,,
899737893,,Bübinger Berg,,49.1769363,7.0452967,,,,,,
598098810,,Bübingen Raiffeisenstraße,,49.1785391,7.0449299,,,,,,
401866234,,Bübingen Schule,,49.1826085,7.0458618,,,,,,
401866235,,Bübingen Friedhof,,49.1829123,7.0390908,,,,,,
401866236,,Bübingen Feldstraße,,49.1880385,7.0391337,,,,,,
899646981,,Güdingen Im Rosengarten,,49.1938466,7.0337669,,,,,,
276389559,,Güdingen Bahnhof,,49.198006,7.0311574,,,,,,
276389563,,Güdingen Bahnstraße,,49.1986036,7.0313347,,,,,,
2364331681,,Im Winterfeld,,49.2011709,7.0323461,,,,,,
277938120,,Güdingen Am Langfeld,,49.2034066,7.0343392,,,,,,
899646948,,Güdingen Daimlerstraße,,49.2044493,7.0419376,,,,,,
293884151,,Brebach Rathaus,,49.2067839,7.04721,,,,,,
478958051,,Kurt-Schumacher-Straße,,49.2092708,7.0484576,,,,,,
5305391627,,Brebach Bahnhof B,,49.2160286,7.0296113,,,,,,
5305391630,,Brebach Bahnhof B,,49.2160273,7.0296581,,,,,,
293884150,,Brebach Rathaus,,49.2067078,7.0471508,,,,,,
277938119,,Güdingen Am Langfeld,,49.2036201,7.0341938,,,,,,
2364335438,,Untere Bergstraße,,49.1985148,7.0319079,,,,,,
2364335329,,Im Königsfeld,,49.1932417,7.0361124,,,,,,
2364335159,,Mittlerer Höhenweg,,49.1941601,7.0379572,,,,,,
276389562,,Güdingen Bahnstraße,,49.1985422,7.0312497,,,,,,
276389557,,Güdingen Bahnhof,,49.1976824,7.0310262,,,,,,
411851134,,Bübingen Feldstraße,,49.1878492,7.0391931,,,,,,
411851132,,Bübingen Friedhof,,49.1823918,7.0388781,,,,,,
411851133,,Bübingen Schule,,49.1825596,7.0455594,,,,,,
598099850,,Bübingen Raiffeisenstraße,,49.1787271,7.0449143,,,,,,
955179205,,Ensheim Bischof-Eich-Straße,,49.2100242,7.1063422,,,,,,
930755010,,Ensheim Industriestraße,,49.2118402,7.113031,,,,,,
711884897,,"Flughafen Saarbrücken, SCN",,49.2202682,7.112973,,,,,,
423402792,,Heckendalheim Römerstraße,,49.2326651,7.1296212,,,,,,
423401258,,Heckendalheim Mitte,,49.2289772,7.1376549,,,,,,
423397092,,Wiesental Heckendalheim,,49.2247171,7.143088,,,,,,
1372093096,,Ommersheim Friedhof,,49.21968,7.1517,,,,,,
364350084,,Ommersheim Kirche,,49.2196091,7.1558531,,,,,,
364347730,,Ommersheim Brunnen,,49.2190709,7.1583421,,,,,,
1372093100,,Ommersheim Weiher,,49.218736,7.164411,,,,,,
906936829,,Ommersheim Baumschule,,49.217211,7.1760626,,,,,,
906645753,,Aßweiler Burwiese,,49.2168053,7.1820445,,,,,,
848837067,,Aßweiler Busbahnhof A,,49.216794,7.1867075,,,,,,
906645222,,Ballweiler Stopp,,49.2131351,7.2080921,,,,,,
906645617,,Ballweiler Sportplatz,,49.2070252,7.2111758,,,,,,
906645515,,Ballweiler Feuerwehr,,49.2064381,7.2141868,,,,,,
5269513118,,Wecklingen,,49.2112599,7.2228462,,,,,,
906645475,,Blickweiler Ballweilerstraße,,49.211076,7.2484682,,,,,,
906645410,,Wecklingen,,49.211053,7.2208935,,,,,,
906645704,,Ballweiler Hirtengarten,,49.2051436,7.2177825,,,,,,
906645830,,Ballweiler Ortsmitte,,49.2042199,7.2148896,,,,,,
364347811,,Ommersheim Brunnen,,49.2191271,7.1583031,,,,,,
364350157,,Ommersheim Kirche,,49.2196598,7.1561366,,,,,,
423395984,,Wiesental Heckendalheim,,49.2248348,7.1430537,,,,,,
423400913,,Heckendalheim Mitte,,49.2290369,7.1377807,,,,,,
423403356,,Heckendalheim Römerstraße,,49.232766,7.1296813,,,,,,
899647005,,Ensheim Industriestraße,,49.2119469,7.1127332,,,,,,
899646839,,Fechingen Wieschbachtal,,49.2044375,7.0632614,,,,,,
4595425583,,Theley Vignal,,49.5028235,7.0184463,,,,,,
907426121,,Hasborn Josef Marx Straße,,49.4954964,6.9804664,,,,,,
2533474167,,Hasborn Wällerchen,,49.4880293,6.9830792,,,,,,
907426039,,Abzweig Leitzweiler,,49.4882291,6.9933865,,,,,,
4880766948,,Bergweiler Lachmühle,,49.4808191,6.9917062,,,,,,
4880766972,,Bergweiler Kapelle,,49.4733104,6.9953634,,,,,,
5362245671,,Sotzweiler John,,49.4643911,6.9999272,,,,,,
4872833886,,Sotzweiler John-Lambert,,49.4650391,7.000239,,,,,,
4880766993,,Sotzweiler Löß,,49.4696815,7.0006587,,,,,,
2521589795,,Abzweig Leitzweiler,,49.4885853,6.9931303,,,,,,
907426494,,Hasborn Wällerchen,,49.4879801,6.9841745,,,,,,
2533942829,,Hasborn Kirche,,49.4903361,6.9779347,,,,,,
2533989014,,Abzweig Überroth,,49.4938101,6.979506,,,,,,
906550140,,Dorf im Bohnental Dewes,,49.4851568,6.9180113,,,,,,
4760638854,,Neipel Sandkaul,,49.4842703,6.9263369,,,,,,
3456897295,,Dörsdorf Gerstenfeld,,49.4755046,6.957269,,,,,,
3456897296,,Dörsdorf Kirche,,49.4729819,6.9622288,,,,,,
3456897298,,Steinbach Brücke,,49.459553,6.9625429,,,,,,
3456897299,,Thalexweiler Schule,,49.4430256,6.9604662,,,,,,
3456897293,,Aschbach Volksbank,,49.4338973,6.9497014,,,,,,
3456897294,,Aschbach Ziegelei,,49.4244577,6.9406019,,,,,,
906550378,,Limbach Sportplatz,,49.4763196,6.8979071,,,,,,
4760639125,,Neipel Abzweig Dorf,,49.4825372,6.9173056,,,,,,
907426574,,Neipel Schule,,49.482398,6.9226267,,,,,,
3453771892,,"Hauptbahnhof A, Saarbrücken",,49.2403054,6.9897844,,,,,,
3456897297,,Lebach Theelbrücke,,49.4097774,6.9102004,,,,,,
5305391626,,Brebach Bahnhof C,,49.2159485,7.0297273,,,,,,
5305391631,,Brebach Bahnhof C,,49.2159485,7.0296796,,,,,,
478934591,,Jakobstraße,,49.2137581,7.0443058,,,,,,
899646935,,Kleine Siedlung,,49.213243,7.059356,,,,,,
899646898,,Alter Mühlenweg,,49.2171173,7.0627629,,,,,,
899646902,,Bischmisheim Kirche,,49.2204703,7.0651361,,,,,,
899646915,,Bischmisheim,,49.221984,7.0653142,,,,,,
899646851,,Turnerweg,,49.2233051,7.0673503,,,,,,
899646969,,Albert-Schweitzer-Straße,,49.2242888,7.0715238,,,,,,
899646990,,Bornshübel,,49.2212254,7.0708353,,,,,,
899646813,,Auf der Witz,,49.2211128,7.0674416,,,,,,
1225674981,,Bischmisheim,,49.2217845,7.0653459,,,,,,
899647030,,Oschelborn,,49.2240121,7.0604527,,,,,,
899647041,,Birkenstraße,,49.22575,7.0524788,,,,,,
899647015,,Unterer Geisberg,,49.2255582,7.0494392,,,,,,
899646832,,Kolbenholz,,49.2239074,7.0460826,,,,,,
3276744547,,Tanzrech,,49.2200148,7.0689823,,,,,,
478934619,,Jakobstraße,,49.2138543,7.0441021,,,,,,
5301563279,,Stadion Kieselhumes D,,49.233125,7.0208639,,,,,,
108381173,,Julius-Kiefer-Straße D,,49.2189351,7.0129461,,,,,,
5330061357,,Universität Busterminal D,,49.2576034,7.0476844,,,,,,
831301744,,Sulzbach Bahnhofstraße,,49.297412,7.057422,,,,,,
831302965,,Neuweiler Karl-Marx-Straße,,49.2887674,7.069831,,,,,,
901472849,,Neuweiler Industrie I,,49.2889055,7.0754558,,,,,,
743231986,,Neuweiler Sternplatz 1,,49.2858102,7.0746468,,,,,,
901472490,,Neuweiler Feuerwehr,,49.2836271,7.0664728,,,,,,
901472951,,Neuweiler Friedhof,,49.2808032,7.0635774,,,,,,
3088157985,,Neuweiler Brunnenstraße,,49.2818769,7.0697318,,,,,,
901472572,,Neuweiler Altersheim,,49.2813963,7.0738462,,,,,,
335600568,,Universität Busterminal,,49.2576974,7.0476416,,,,,,
901472925,,Neuweiler Sternplatz 2,,49.2858354,7.0749056,,,,,,
831302964,,Neuweiler Karl-Marx-Straße,,49.2890053,7.0699061,,,,,,
299000706,,Am Hang,,49.2433853,7.0604107,,,,,,
299000640,,Scheidterbergstraße,,49.2411841,7.0642732,,,,,,
299000641,,Brunnenweg,,49.2421236,7.0672619,,,,,,
299000642,,Beerenfeldstraße,,49.2427152,7.0693173,,,,,,
900421733,,Scheidterberg,,49.2399322,7.0698476,,,,,,
900421764,,Höhenweg,,49.2338996,7.0619589,,,,,,
899646965,,Im Wacholderfeld,,49.2315782,7.0591072,,,,,,
899646929,,Forstweg,,49.2292245,7.0541551,,,,,,
900421691,,Höhenweg,,49.2333789,7.0616282,,,,,,
900421729,,Scheidterberg,,49.2400469,7.0698888,,,,,,
292893687,,Beerenfeldstraße,,49.2427067,7.0689626,,,,,,
292893688,,Brunnenweg,,49.2418359,7.0663752,,,,,,
292893691,,Scheidterbergstraße,,49.2410304,7.0634671,,,,,,
299000705,,Am Hang,,49.24321,7.0608158,,,,,,
5305391638,,Brebach Bahnhof A,,49.2159239,7.0294972,,,,,,
955179247,,Fechingen Heringsmühle,,49.2032213,7.0613834,,,,,,
930769920,,Latze Brück,,49.2004314,7.0625669,,,,,,
625449641,,Fechingen Kirche,,49.1989764,7.0648525,,,,,,
930769919,,Fechingen Kronenmühle,,49.1961233,7.0674458,,,,,,
668684050,,Fechingen Schwimmbad,,49.1935124,7.0705117,,,,,,
424063398,,Beim Schöpfchen,,49.1906796,7.0919237,,,,,,
424063393,,Am Höllweg,,49.1915509,7.0966053,,,,,,
424063391,,Andreas-Kremp-Straße,,49.1915958,7.100579,,,,,,
424063387,,Eschringen Mühle,,49.1902333,7.1035184,,,,,,
424063383,,Am Rebenberg,,49.1928326,7.1042005,,,,,,
428785611,,Brückstraße,,49.1988881,7.1077275,,,,,,
428785609,,Ensheim Marktweg,,49.2018986,7.1092767,,,,,,
930742262,,Ormesheimer Straße,,49.2012009,7.1120374,,,,,,
930742229,,Eschringen Gassenmühle,,49.1927248,7.1182232,,,,,,
930742222,,Ormesheim Hüglingen,,49.1933863,7.1261419,,,,,,
634349512,,Ormesheim Neumühle,,49.1951539,7.1319309,,,,,,
930742310,,Ormesheim Nikolausstraße,,49.1967664,7.1389167,,,,,,
899646818,,Ensheim Rathaus,,49.2046585,7.1086568,,,,,,
899646972,,Kreuzfeldstraße,,49.2067265,7.108782,,,,,,
899646860,,Ensheim Bischof-Eich-Straße,,49.2092865,7.1073296,,,,,,
899646810,,Ensheim Sportplatz,,49.2097664,7.1133915,,,,,,
955179242,,Ensheim Bischof-Eich-Straße,,49.2086661,7.106957,,,,,,
955179230,,Kreuzfeldstraße,,49.2057646,7.1070876,,,,,,
428785608,,Ensheim Marktweg,,49.201322,7.1078464,,,,,,
428785610,,Brückstraße,,49.1989942,7.1076968,,,,,,
424063384,,Am Rebenberg,,49.1919889,7.1039223,,,,,,
424063386,,Eschringen Mühle,,49.1903301,7.1033954,,,,,,
424063388,,Andreas-Kremp-Straße,,49.1916697,7.1008347,,,,,,
424063395,,Am Höllweg,,49.1916714,7.0962873,,,,,,
424063400,,Beim Schöpfchen,,49.1906839,7.0916875,,,,,,
668684046,,Fechingen Schwimmbad,,49.1935245,7.0709675,,,,,,
906936572,,Ormesheim Nikolausstraße,,49.1969365,7.138902,,,,,,
634349508,,Ormesheim Neumühle,,49.1950313,7.1309335,,,,,,
906937413,,Ormesheim Hüglingen,,49.1931851,7.1249845,,,,,,
899646909,,Eschringen Gassenmühle,,49.1928909,7.1182782,,,,,,
899646872,,Ormesheimer Straße,,49.2009577,7.1124212,,,,,,
899646854,,Fechingen Kronenmühle,,49.1962713,7.0680126,,,,,,
899421307,,EKZ Im Sauerbrod,,49.2494661,7.0061899,,,,,,
898125889,,Jägersfreude Blechhammerstraße,,49.2648387,7.0057153,,,,,,
925575979,,Jägersfreude St.Johanner Straße,,49.2665658,7.0074972,,,,,,
925575985,,Herrensohr Friedhofstraße,,49.2692927,7.0097181,,,,,,
925575983,,Herrensohr Bergstraße,,49.2717848,7.0141759,,,,,,
925575982,,Herrensohr Markt,,49.2734106,7.0148116,,,,,,
925575980,,Herrensohr Römerstraße,,49.2744018,7.0202936,,,,,,
925575997,,Am Schlachthaus,,49.2749185,7.0243057,,,,,,
898125744,,Dudweiler Bahnhof,,49.2779105,7.0288921,,,,,,
771482742,,St.Avolder Straße,,49.2762608,7.0302253,,,,,,
267041509,,ZF Tor 1,,49.218085,6.975634,,,,,,
930001458,,ZF Tor 2,,49.2139734,6.9829582,,,,,,
899606068,,Druckzentrum SZ,,49.2112956,6.9805858,,,,,,
930001457,,Spicherer Weg,,49.2118723,6.977055,,,,,,
930001460,,Ausbildungszentrum,,49.2115532,6.9719808,,,,,,
899605951,,Industriegebiet Süd,,49.2133598,6.9676657,,,,,,
930001459,,Industriegebiet Süd,,49.2129997,6.9679938,,,,,,
899606002,,Ausbildungszentrum,,49.2115194,6.9721705,,,,,,
899606053,,Spicherer Weg,,49.2118448,6.9773155,,,,,,
169541622,,Druckzentrum SZ,,49.2110535,6.9819955,,,,,,
334650919,,ZF Tor 2,,49.2138655,6.983241,,,,,,
899605977,,ZF Tor 1,,49.2181119,6.9754798,,,,,,
899512295,,Thüringer Straße,,49.2319666,7.0137003,,,,,,
899512303,,Sachsenweg/Preußenstraße,,49.2349565,7.0118355,,,,,,
271513371,,InnovationsCampus Ost,,49.2448326,6.9384616,,,,,,
899405111,,Lucas-Cranach-Straße,,49.2146256,7.010157,,,,,,
899404846,,Wackenberg,,49.2144697,7.0129488,,,,,,
930053860,,Lucas-Cranach-Straße,,49.2146099,7.01031,,,,,,
1854035691,,Ludwigsberg,,49.2439085,6.9818136,,,,,,
899562538,,Am Schönental,,49.2467099,6.979954,,,,,,
899562578,,Margaretenstift,,49.2501798,6.9799989,,,,,,
899562501,,Am Torhaus,,49.2523493,6.9772783,,,,,,
899562512,,Rußhütte Evangelische Kirche,,49.2547823,6.9754953,,,,,,
899562559,,Am Emmersberg,,49.2557801,6.9752436,,,,,,
